{"stopId": "1724", "stopName": "Buruk Son", "lat": "37.0409456", "lng": "35.4288056", "routes": "17019"}
{"stopId": "1760", "stopName": "Konaklama 1", "lat": "37.053893", "lng": "35.4981139", "routes": "17019"}
{"stopId": "1761", "stopName": "Konaklama 2", "lat": "37.0562346", "lng": "35.488761", "routes": "17019"}
{"stopId": "1762", "stopName": "Buruk 1", "lat": "37.0575319", "lng": "35.4665872", "routes": "17019"}
{"stopId": "1763", "stopName": "Buruk 2", "lat": "37.0553143", "lng": "35.4627409", "routes": "17019"}
{"stopId": "1800", "stopName": "00ZİYAPASA BUL.-4", "lat": "36.998822", "lng": "35.32057", "routes": "000"}
{"stopId": "1803", "stopName": "11ZİYAPASA BUL.-7", "lat": "36.993698", "lng": "35.322254", "routes": "000"}
{"stopId": "1822", "stopName": "G178 - TO CAMİ", "lat": "37.04735", "lng": "35.301255", "routes": "000"}
{"stopId": "1922", "stopName": "PERON CIKIS", "lat": "37.05359", "lng": "35.358762", "routes": "16083"}
{"stopId": "1935", "stopName": "GENİŞ YOL", "lat": "37.0370788", "lng": "35.4201202", "routes": "17019"}
{"stopId": "1936", "stopName": "OTOBAN ISIK", "lat": "37.030916", "lng": "35.407648", "routes": "16083,17019"}
{"stopId": "1938", "stopName": "KANAL IŞIK", "lat": "37.0154495", "lng": "35.3841209", "routes": "17019,17035"}
{"stopId": "1940", "stopName": "PTT ÇIKIŞ DURAK", "lat": "37.010114", "lng": "35.376332", "routes": "17019,17035"}
{"stopId": "1941", "stopName": "BAŞKENT", "lat": "37.005472", "lng": "35.36363", "routes": "16083"}
{"stopId": "1951", "stopName": "4.5 DURAK D", "lat": "37.0183278", "lng": "35.3167365", "routes": "16083"}
{"stopId": "1952", "stopName": "ORTADOĞU", "lat": "37.0153045", "lng": "35.324192", "routes": "16083"}
{"stopId": "1985", "stopName": "MERKEZ CAMİ D", "lat": "36.990626", "lng": "35.333932", "routes": "17019,17035"}
{"stopId": "2024", "stopName": "ÇETİNKAYA", "lat": "36.991242", "lng": "35.32082", "routes": "17018,17019,17025,17026,17035"}
{"stopId": "2025", "stopName": "KÜÇÜK SAAT", "lat": "36.987893", "lng": "35.324064", "routes": "17018,17019,17025,17026,17033,17035"}
{"stopId": "2026", "stopName": "ABİDİNPAŞA GİRİŞ", "lat": "36.986457", "lng": "35.3265162", "routes": "17018,17025"}
{"stopId": "2027", "stopName": "TAŞ KÖPRÜ", "lat": "36.9864868", "lng": "35.333169", "routes": "17018,17019,17025,17035"}
{"stopId": "2028", "stopName": "KÜLTÜR SİTESİ", "lat": "36.99068", "lng": "35.333524", "routes": "17018,17025"}
{"stopId": "2029", "stopName": "CAMSU", "lat": "36.9893518", "lng": "35.3405009", "routes": "17018,17019,17025,17035"}
{"stopId": "2030", "stopName": "A.OTOMOTİV IŞIK", "lat": "36.987774", "lng": "35.349449", "routes": "17025"}
{"stopId": "2031", "stopName": "Aziz Otomotiv D400", "lat": "36.9883601", "lng": "35.3461284", "routes": "17025"}
{"stopId": "2032", "stopName": "A.EVLERİ KEBAPÇI", "lat": "36.994809", "lng": "35.366534", "routes": "17025"}
{"stopId": "2033", "stopName": "DERVİŞLER İ.Ö.O.", "lat": "36.99717", "lng": "35.368483", "routes": "17025"}
{"stopId": "2034", "stopName": "TEDAŞ AMBAR", "lat": "36.994884", "lng": "35.377736", "routes": "17025"}
{"stopId": "2035", "stopName": "Y.DOĞAN KAVŞAĞI", "lat": "36.9900093", "lng": "35.3776248", "routes": "17025"}
{"stopId": "2036", "stopName": "VEYSEL KUNDURA", "lat": "36.979157", "lng": "35.376723", "routes": "17025"}
{"stopId": "2037", "stopName": "MOBİLYACILAR SİTESİ GİRİŞ", "lat": "36.9760843", "lng": "35.3895882", "routes": "17025"}
{"stopId": "2039", "stopName": "D.Mobilyacılar çıkş", "lat": "36.976545", "lng": "35.387869", "routes": "17025"}
{"stopId": "2040", "stopName": "D.Y.DOĞAN KAVŞAĞI", "lat": "36.9842262", "lng": "35.3730764", "routes": "17025"}
{"stopId": "2041", "stopName": "D.TEDAŞ AMBAR", "lat": "36.994635", "lng": "35.378089", "routes": "17025"}
{"stopId": "2042", "stopName": "D.Y.DOĞAN İ.Ö.O.", "lat": "36.997368", "lng": "35.368719", "routes": "17025"}
{"stopId": "2044", "stopName": "D.afet evleri şok mrkt", "lat": "36.9958286", "lng": "35.3677345", "routes": "17025"}
{"stopId": "2045", "stopName": "D.A.OTOMOTİV IŞIK", "lat": "36.988074", "lng": "35.349957", "routes": "17025"}
{"stopId": "2047", "stopName": "D.BELEDİYE", "lat": "36.991844", "lng": "35.327498", "routes": "17018,17025"}
{"stopId": "2048", "stopName": "D. Gizerler", "lat": "36.992164", "lng": "35.324349", "routes": "17018,17019,17025,17035"}
{"stopId": "2051", "stopName": "Sadakat camii", "lat": "36.9933821", "lng": "35.3512927", "routes": "17019,17035"}
{"stopId": "2052", "stopName": "G. Altın koza", "lat": "37.0026388", "lng": "35.366088", "routes": "17019,17035"}
{"stopId": "2056", "stopName": "G.MUTLU KANALI", "lat": "37.014662", "lng": "35.382785", "routes": "17019,17035"}
{"stopId": "2057", "stopName": "G.OTOBAN KÖPRÜSÜ", "lat": "37.016813", "lng": "35.387672", "routes": "17019,17035"}
{"stopId": "2058", "stopName": "ADASIVA", "lat": "37.03463", "lng": "35.41574", "routes": "17019"}
{"stopId": "2059", "stopName": "G.AYDINLAR MARKET", "lat": "37.0417869", "lng": "35.4129938", "routes": "17035"}
{"stopId": "2060", "stopName": "G.MEZARLIK IŞIK", "lat": "37.0410124", "lng": "35.4304966", "routes": "17019"}
{"stopId": "2061", "stopName": "G.BURUK MEYDAN", "lat": "37.046221", "lng": "35.4577512", "routes": "17019"}
{"stopId": "2062", "stopName": "BURUK MEYDANI", "lat": "37.0528532", "lng": "35.4611698", "routes": "17019"}
{"stopId": "2071", "stopName": "ÇADIR KENT", "lat": "37.051874", "lng": "35.500052", "routes": "17019"}
{"stopId": "2072", "stopName": "BURUK TOKİ", "lat": "37.057505", "lng": "35.484648", "routes": "17019"}
{"stopId": "2080", "stopName": "D.BURUK MEZARLIK", "lat": "37.0351395", "lng": "35.4320889", "routes": "17019"}
{"stopId": "2083", "stopName": "D.GENİŞ YOL", "lat": "37.036855", "lng": "35.419955", "routes": "16083"}
{"stopId": "2084", "stopName": "D.OTOBAN KÖPRÜSÜ IŞIK", "lat": "37.033669", "lng": "35.4132397", "routes": "17019"}
{"stopId": "2092", "stopName": "D.PTT KAVŞAĞI IŞIK", "lat": "37.0139853", "lng": "35.3810662", "routes": "17019,17035"}
{"stopId": "2094", "stopName": "D.ÇİFLİK YOLU", "lat": "37.006049", "lng": "35.371509", "routes": "17019,17035"}
{"stopId": "2095", "stopName": "D.OSİMPAŞ", "lat": "37.0043698", "lng": "35.3678802", "routes": "17019,17035"}
{"stopId": "2096", "stopName": "D.TREN HATTI", "lat": "37.0020747", "lng": "35.3654037", "routes": "17019,17035"}
{"stopId": "2097", "stopName": "D.YAVUZLAR KANALI", "lat": "37.0007595", "lng": "35.3641215", "routes": "17019,17035"}
{"stopId": "2099", "stopName": "D.CAMSU", "lat": "36.989595", "lng": "35.340491", "routes": "17019,17035"}
{"stopId": "2220", "stopName": "ABİDİNPAŞA ÇIKIŞ", "lat": "36.9861289", "lng": "35.332633", "routes": "17019,17035"}
{"stopId": "2233", "stopName": "YAVUZLAR İ.Ö.O IŞIK", "lat": "37.001089", "lng": "35.342864", "routes": "17018"}
{"stopId": "2234", "stopName": "E.SİNEMA", "lat": "37.002", "lng": "35.34565", "routes": "17018"}
{"stopId": "2235", "stopName": "YAVUZLAR IŞIK", "lat": "36.9964819", "lng": "35.3556803", "routes": "17018"}
{"stopId": "2237", "stopName": "TREN HATTI", "lat": "37.002406", "lng": "35.355312", "routes": "17018"}
{"stopId": "2238", "stopName": "BAŞKENT", "lat": "37.0045786", "lng": "35.3586014", "routes": "17018"}
{"stopId": "2239", "stopName": "MESLEK ÖNÜ", "lat": "37.0109185", "lng": "35.3677058", "routes": "17018"}
{"stopId": "2247", "stopName": "PTT DOLMUŞ DURAĞI", "lat": "37.019565", "lng": "35.370949", "routes": "17018"}
{"stopId": "2248", "stopName": "D PTT DOLMUŞ DURAĞI", "lat": "37.019565", "lng": "35.370949", "routes": "17018"}
{"stopId": "2249", "stopName": "D PTT BUZKAYA MOBİLYA", "lat": "37.021734", "lng": "35.367776", "routes": "17018"}
{"stopId": "2251", "stopName": "D Çay bahçesi", "lat": "37.0168223", "lng": "35.3736296", "routes": "17018"}
{"stopId": "2253", "stopName": "D BAŞKENT IŞIKLAR", "lat": "37.006018", "lng": "35.361112", "routes": "17018"}
{"stopId": "2254", "stopName": "D ÜNSALLA M.", "lat": "37.020063", "lng": "35.365867", "routes": "17018"}
{"stopId": "2258", "stopName": "D TREN HATTI", "lat": "37.0032422", "lng": "35.3555832", "routes": "17018"}
{"stopId": "2262", "stopName": "D UN FAB", "lat": "36.996672", "lng": "35.356854", "routes": "17019,17035"}
{"stopId": "2263", "stopName": "D KANAL IŞIK", "lat": "36.99739", "lng": "35.357876", "routes": "17018"}
{"stopId": "2265", "stopName": "D ESKİ SİNEMA", "lat": "37.000114", "lng": "35.349986", "routes": "17018"}
{"stopId": "2266", "stopName": "D GÜL MARKET", "lat": "37.002008", "lng": "35.34356", "routes": "17018"}
{"stopId": "2267", "stopName": "D KIŞLA PETROL", "lat": "36.996344", "lng": "35.342782", "routes": "17018"}
{"stopId": "2268", "stopName": "D MAVİ KÖŞE", "lat": "36.98983", "lng": "35.340979", "routes": "17018"}
{"stopId": "2342", "stopName": "KIŞLA CD.", "lat": "37.0083857", "lng": "35.3425479", "routes": "16083"}
{"stopId": "2369", "stopName": "PTT BURUK ÇIKIŞ", "lat": "37.017674", "lng": "35.373514", "routes": "16083"}
{"stopId": "2370", "stopName": "STAD IŞIĞI", "lat": "37.0663801", "lng": "35.3753787", "routes": "24050"}
{"stopId": "3000", "stopName": "DÖRTYOL GİRİŞ", "lat": "36.990367", "lng": "35.326467", "routes": "30008"}
{"stopId": "3010", "stopName": "OPET", "lat": "37.031967", "lng": "35.409855", "routes": "17019"}
{"stopId": "3011", "stopName": "ERİKCİLER", "lat": "37.0144162", "lng": "35.3819484", "routes": "17019,17035,30008"}
{"stopId": "3012", "stopName": "NAZAR PTT TOKİ", "lat": "37.0043698", "lng": "35.3678802", "routes": "30008"}
{"stopId": "3013", "stopName": "E -5", "lat": "36.989149", "lng": "35.3431371", "routes": "17019,17035,30008"}
{"stopId": "3014", "stopName": "MERKEZ CAMİ", "lat": "36.99117", "lng": "35.33216", "routes": "30008"}
{"stopId": "3015", "stopName": "DÖRTYOL", "lat": "36.9903214", "lng": "35.327077", "routes": "30008"}
{"stopId": "3016", "stopName": "ESKİ MÜZE GİRİŞ", "lat": "36.9902333", "lng": "35.3250379", "routes": "30008"}
{"stopId": "3017", "stopName": "ESKİ MÜZE", "lat": "36.990032", "lng": "35.3234848", "routes": "30008"}
{"stopId": "3018", "stopName": "ABİDİNPAŞA", "lat": "36.9863561", "lng": "35.3277882", "routes": "17019,17035,30008"}
{"stopId": "3019", "stopName": "CAMSU", "lat": "36.9893518", "lng": "35.3405009", "routes": "30008"}
{"stopId": "3020", "stopName": "İREM TIP", "lat": "36.995578", "lng": "35.35534", "routes": "30008"}
{"stopId": "3021", "stopName": "ÇOLAK PETROL", "lat": "37.0025057", "lng": "35.3659266", "routes": "17019,17035,30008"}
{"stopId": "3022", "stopName": "D. PTT KAVŞAĞI", "lat": "37.009578", "lng": "35.376019", "routes": "17019,17035,30008"}
{"stopId": "3063", "stopName": "OTOBAN KÖPRÜSÜ", "lat": "37.02833", "lng": "35.403523", "routes": "17019"}
{"stopId": "3077", "stopName": "D.ADA SIVA", "lat": "37.0329294", "lng": "35.4121759", "routes": "17019"}
{"stopId": "3078", "stopName": "D.ÇÖPLÜK YOLU", "lat": "37.0412624", "lng": "35.3937545", "routes": "24050"}
{"stopId": "3081", "stopName": "YÜREĞİR OTOGARI", "lat": "36.9908329", "lng": "35.3451931", "routes": "17019,17035"}
{"stopId": "3083", "stopName": "İREM TIP GİDİŞ", "lat": "36.996047", "lng": "35.355932", "routes": "17019,17035"}
{"stopId": "3084", "stopName": "MOIL PETROL", "lat": "37.0346795", "lng": "35.4152093", "routes": "17019"}
{"stopId": "3087", "stopName": "Batıkent TIP merkezi", "lat": "37.0274988", "lng": "35.4020397", "routes": "17019,17035"}
{"stopId": "3090", "stopName": "KÜLTÜR SİTESİ", "lat": "36.9899567", "lng": "35.330449", "routes": "30008"}
{"stopId": "3091", "stopName": "KÜÇÜK SAAT DURAĞI", "lat": "36.9885683", "lng": "35.3234216", "routes": "30008"}
{"stopId": "3092", "stopName": "BEŞ OCAK MEYDANI", "lat": "36.9868544", "lng": "35.3249505", "routes": "30008"}
{"stopId": "3093", "stopName": "ABİDİNPAŞA GİRİŞİ", "lat": "36.9864345", "lng": "35.3265223", "routes": "30008"}
{"stopId": "3095", "stopName": "SADAKAT CAMİİ", "lat": "36.993123", "lng": "35.3506461", "routes": "17019,17035,30008"}
{"stopId": "3097", "stopName": "İş bankası durağı", "lat": "36.9978145", "lng": "35.3595349", "routes": "17019,17035"}
{"stopId": "3098", "stopName": "Sebze hali", "lat": "36.9916963", "lng": "35.3471592", "routes": "30008"}
{"stopId": "3099", "stopName": "SAAT KULESİ", "lat": "37.028527", "lng": "35.40333", "routes": "17019,17035"}
{"stopId": "3100", "stopName": "KARACA MOBİLYA", "lat": "37.0138256", "lng": "35.3810462", "routes": "17019,17035,30008"}
{"stopId": "3101", "stopName": "SU DEPOSU", "lat": "37.0231329", "lng": "35.3967157", "routes": "17019"}
{"stopId": "3204", "stopName": "Mutlu başlangıç", "lat": "37.0138705", "lng": "35.3935346", "routes": "30008"}
{"stopId": "4001", "stopName": "ÇİNARALTİ", "lat": "36.9909896", "lng": "35.3232154", "routes": "24042"}
{"stopId": "4010", "stopName": "CAMSU GİRİŞ", "lat": "36.989337", "lng": "35.34362", "routes": "17019,17025,17035"}
{"stopId": "4030", "stopName": "ABİDİNPAŞA", "lat": "36.98634", "lng": "35.3288", "routes": "17019,17035"}
{"stopId": "4032", "stopName": "F.PAŞA SONDURAK", "lat": "37.0014885", "lng": "35.2570303", "routes": "28008"}
{"stopId": "4037", "stopName": "OTOBAN GİRİŞ", "lat": "37.0249218", "lng": "35.343749", "routes": "24021"}
{"stopId": "4056", "stopName": "KANAL İŞİK", "lat": "37.01562", "lng": "35.38448", "routes": "16083,17019,17035"}
{"stopId": "4096", "stopName": "İTFAİYE", "lat": "37.0074884", "lng": "35.360328", "routes": "16083"}
{"stopId": "4097", "stopName": "D.7.DURAK", "lat": "37.0291005", "lng": "35.3135288", "routes": "16083"}
{"stopId": "4137", "stopName": "GİRNE BLV. DÖNÜŞ", "lat": "36.98348", "lng": "35.38969", "routes": "123"}
{"stopId": "4138", "stopName": "GARDİYAN LOJ.", "lat": "36.9922816", "lng": "35.3636626", "routes": "17025"}
{"stopId": "4141", "stopName": "PTT TIP MERKEZİ", "lat": "37.0115165", "lng": "35.3759918", "routes": "16083"}
{"stopId": "4173", "stopName": "KÜLTÜR SİTESİ PETROL", "lat": "36.98901", "lng": "35.33197", "routes": "17018,17025"}
{"stopId": "4174", "stopName": "K.SAAT MEYDANI", "lat": "36.9866527", "lng": "35.325044", "routes": "17018,17025"}
{"stopId": "4178", "stopName": "ABİDİNPAŞA ÇIKIŞ", "lat": "36.9862244", "lng": "35.3310069", "routes": "17018,17019,17025,17035"}
{"stopId": "4184", "stopName": "TOKİ YOLU", "lat": "36.9931505", "lng": "35.3418833", "routes": "17018"}
{"stopId": "4387", "stopName": "KOZAN 9B", "lat": "37.4625189", "lng": "35.8225674", "routes": "511"}
{"stopId": "4900", "stopName": "Toki 1", "lat": "37.0669152", "lng": "35.4068759", "routes": "17035"}
{"stopId": "4906", "stopName": "İbni Sina", "lat": "37.059612", "lng": "35.474965", "routes": "17019"}
{"stopId": "4907", "stopName": "Ölüm Virajı", "lat": "37.0544838", "lng": "35.4931894", "routes": "17019"}
{"stopId": "4908", "stopName": "Buruk Köyü Çıkış", "lat": "37.0357001", "lng": "35.4448077", "routes": "17019,24050,33003"}
{"stopId": "4909", "stopName": "Tarım Kredi", "lat": "37.0407829", "lng": "35.4544905", "routes": "17019"}
{"stopId": "4910", "stopName": "Çadır son", "lat": "37.0543596", "lng": "35.4925403", "routes": "17019"}
{"stopId": "4911", "stopName": "Göztepe Toki", "lat": "37.046006", "lng": "35.512753", "routes": "17019"}
{"stopId": "4912", "stopName": "Göztepe Toki 2", "lat": "37.048078", "lng": "35.510076", "routes": "17019"}
{"stopId": "20016", "stopName": "FUAR ALANI DURAK", "lat": "37.0563607", "lng": "35.2467064", "routes": "20005"}
{"stopId": "20018", "stopName": "METRO PARK", "lat": "37.052173", "lng": "35.2534517", "routes": "20005"}
{"stopId": "20021", "stopName": "RUH SAGLIGI DURAK", "lat": "37.0510308", "lng": "35.2595616", "routes": "20005"}
{"stopId": "20022", "stopName": "D.RUHSAGLIGI", "lat": "37.050816", "lng": "35.262394", "routes": "20005"}
{"stopId": "20023", "stopName": "RUH SAGLIGI METRO DURAK", "lat": "37.0501938", "lng": "35.2642637", "routes": "20005"}
{"stopId": "20024", "stopName": "SHELL KARŞISI DURAK", "lat": "37.049424", "lng": "35.269556", "routes": "20005"}
{"stopId": "20025", "stopName": "GÜNDOĞDU DURAK", "lat": "37.0500266", "lng": "35.2710286", "routes": "20005"}
{"stopId": "20026", "stopName": "GÜNDOĞDU DURAK ÇIKIŞ", "lat": "37.050794", "lng": "35.271342", "routes": "20005"}
{"stopId": "20027", "stopName": "BALA KASABI IŞIK", "lat": "37.05466", "lng": "35.27509", "routes": "20005"}
{"stopId": "20028", "stopName": "İBRAHİM ATALI NOKULU", "lat": "37.055343", "lng": "35.277218", "routes": "20005"}
{"stopId": "20029", "stopName": "YİĞİTLER S.DEMİREL", "lat": "37.0560718", "lng": "35.2803053", "routes": "20005"}
{"stopId": "20030", "stopName": "POLİS SİTESİ S.DEMİREL", "lat": "37.0555998", "lng": "35.2869997", "routes": "20005"}
{"stopId": "20031", "stopName": "POLİS SİTESİ DURAK ÇIKIŞ", "lat": "37.055166", "lng": "35.28724", "routes": "20005"}
{"stopId": "20032", "stopName": "UĞUR MUMCU ÇAY OCAĞI", "lat": "37.048202", "lng": "35.3015683", "routes": "20005"}
{"stopId": "20033", "stopName": "TRT DURAK", "lat": "37.052418", "lng": "35.295067", "routes": "20005"}
{"stopId": "20034", "stopName": "KIZ LİSESİ KARŞISI", "lat": "37.0528453", "lng": "35.2913648", "routes": "20005"}
{"stopId": "20040", "stopName": "METROPOL DURAK", "lat": "37.0470594", "lng": "35.3021189", "routes": "20005"}
{"stopId": "20041", "stopName": "GÖKKUŞAĞI", "lat": "37.0456928", "lng": "35.3069367", "routes": "20005"}
{"stopId": "20042", "stopName": "CEYLAN DURAK ÇIKIŞ", "lat": "37.042853", "lng": "35.311882", "routes": "20005"}
{"stopId": "20043", "stopName": "AKSA GAZ IŞIK", "lat": "37.0395147", "lng": "35.3149368", "routes": "20005"}
{"stopId": "20044", "stopName": "BİRBİÇER DURAK ÇIKIŞ", "lat": "37.0374971", "lng": "35.314597", "routes": "20005"}
{"stopId": "20045", "stopName": "İLLER BANKASI", "lat": "37.0346095", "lng": "35.3136715", "routes": "20005"}
{"stopId": "20046", "stopName": "DUYGU CAFE TEDAŞ", "lat": "37.0313331", "lng": "35.3134625", "routes": "20005"}
{"stopId": "20047", "stopName": "SITKI KULAK OKULU", "lat": "37.0290656", "lng": "35.3117367", "routes": "20005"}
{"stopId": "20048", "stopName": "BARAJ LİSESİ", "lat": "37.028822", "lng": "35.310308", "routes": "20005"}
{"stopId": "20049", "stopName": "TURKUAZ DURAK", "lat": "37.0260376", "lng": "35.3089662", "routes": "20005"}
{"stopId": "20050", "stopName": "NECİP FAZIL GÜZERGAH", "lat": "37.024952", "lng": "35.308673", "routes": "20005"}
{"stopId": "20051", "stopName": "EVREN SİTESİ DURAK", "lat": "37.021664", "lng": "35.308739", "routes": "20005"}
{"stopId": "20052", "stopName": "EVREN SİTESİ DURAK ÇIKIŞ", "lat": "37.021566", "lng": "35.309772", "routes": "20005"}
{"stopId": "20053", "stopName": "ADIBELLİ", "lat": "37.02222", "lng": "35.312351", "routes": "20005"}
{"stopId": "20057", "stopName": "GÜLEK CAMİİ", "lat": "37.0149147", "lng": "35.3145119", "routes": "20005"}
{"stopId": "20058", "stopName": "ÇATAL YOL", "lat": "37.0193271", "lng": "35.3140371", "routes": "20005"}
{"stopId": "20059", "stopName": "ÖZEN KÖPRÜSÜ", "lat": "37.009981", "lng": "35.315378", "routes": "20005"}
{"stopId": "20061", "stopName": "SEYHAN BAŞKENT", "lat": "37.0081396", "lng": "35.324151", "routes": "20005"}
{"stopId": "20065", "stopName": "ÜNAL PAZAR YERİ", "lat": "37.021512", "lng": "35.313666", "routes": "20005"}
{"stopId": "20070", "stopName": "İNÖNÜ PARKI", "lat": "36.990309", "lng": "35.3269329", "routes": "20005"}
{"stopId": "20071", "stopName": "TAŞ KÖPRÜ", "lat": "36.9862504", "lng": "35.3332428", "routes": "20005"}
{"stopId": "20072", "stopName": "KÜLTÜR SİTESİ", "lat": "36.9885879", "lng": "35.3321145", "routes": "20005"}
{"stopId": "20073", "stopName": "KÜLTÜR SİTESİ ÇIKIŞ", "lat": "36.98995", "lng": "35.3305093", "routes": "20005"}
{"stopId": "20074", "stopName": "KÜÇÜK SAAT", "lat": "36.9866304", "lng": "35.3250533", "routes": "20005"}
{"stopId": "20075", "stopName": "ABİDİNPAŞA GİRİŞ", "lat": "36.986446", "lng": "35.3264548", "routes": "20005"}
{"stopId": "20076", "stopName": "ABİDİNPAŞA DURAK", "lat": "36.9863748", "lng": "35.3273645", "routes": "20005"}
{"stopId": "20077", "stopName": "ADLİYE", "lat": "36.9900709", "lng": "35.328748", "routes": "20005"}
{"stopId": "20078", "stopName": "DÖRTYOL GİRİŞ", "lat": "36.990621", "lng": "35.325702", "routes": "102,20005"}
{"stopId": "20079", "stopName": "DÖRTYOL ÇIKIŞ", "lat": "36.991059", "lng": "35.325611", "routes": "20005"}
{"stopId": "20080", "stopName": "ARI SİNEMASI ÇIKIŞ", "lat": "36.9950849", "lng": "35.3249683", "routes": "20005"}
{"stopId": "20081", "stopName": "GÜL BAHÇESİ", "lat": "37.0012628", "lng": "35.323299", "routes": "20005"}
{"stopId": "20082", "stopName": "SULAR", "lat": "37.003583", "lng": "35.324374", "routes": "20005"}
{"stopId": "20083", "stopName": "SEYHAN BAŞKENT", "lat": "37.00794", "lng": "35.324335", "routes": "20005"}
{"stopId": "20087", "stopName": "BAĞLAR KANAL DÖNÜŞ", "lat": "37.0094973", "lng": "35.323529", "routes": "20005"}
{"stopId": "20088", "stopName": "KARAFATMA GİRİŞİ", "lat": "37.0100632", "lng": "35.3203738", "routes": "20005"}
{"stopId": "20091", "stopName": "D.KARABUCAK GÜZERGAH", "lat": "37.0145366", "lng": "35.3177704", "routes": "20005"}
{"stopId": "20093", "stopName": "D. 06 GÜZERGAH", "lat": "37.0161102", "lng": "35.3160879", "routes": "20005"}
{"stopId": "20094", "stopName": "D. ENES", "lat": "37.0207238", "lng": "35.3137661", "routes": "20005"}
{"stopId": "20095", "stopName": "D. ADIBELLİ GÜZERGAH", "lat": "37.0223819", "lng": "35.3127381", "routes": "20005"}
{"stopId": "20096", "stopName": "D. EVREN SİTESİ", "lat": "37.0221072", "lng": "35.3088429", "routes": "20005"}
{"stopId": "20098", "stopName": "D. PALET", "lat": "37.026757", "lng": "35.311648", "routes": "20005"}
{"stopId": "20099", "stopName": "D. DUYGU KÖPRÜ", "lat": "37.029662", "lng": "35.313744", "routes": "20005"}
{"stopId": "20100", "stopName": "D. İLLER BANKASI", "lat": "37.034231", "lng": "35.3137549", "routes": "20005"}
{"stopId": "20101", "stopName": "D. GÖKKUŞAĞI", "lat": "37.0443629", "lng": "35.3101901", "routes": "20005"}
{"stopId": "20102", "stopName": "D. MAKİ", "lat": "37.0500392", "lng": "35.3003445", "routes": "20005"}
{"stopId": "20103", "stopName": "D. TRT S.DEMİREL", "lat": "37.052677", "lng": "35.296109", "routes": "20005"}
{"stopId": "20104", "stopName": "D. POLİS SİTESİ", "lat": "37.0549921", "lng": "35.2875689", "routes": "20005"}
{"stopId": "20105", "stopName": "D. BALA KASABI", "lat": "37.0548655", "lng": "35.2752011", "routes": "20005"}
{"stopId": "20106", "stopName": "D. GÜNDOĞDU", "lat": "37.0510566", "lng": "35.2712777", "routes": "20005"}
{"stopId": "20109", "stopName": "D. SHEL DURAK", "lat": "37.0498377", "lng": "35.268878", "routes": "20005"}
{"stopId": "20112", "stopName": "D.SEYHAN UYGULAMA HAST.", "lat": "37.0583945", "lng": "35.2800637", "routes": "20005"}
{"stopId": "20116", "stopName": "D. SULAR GİRİŞ", "lat": "37.0032212", "lng": "35.3233626", "routes": "20005"}
{"stopId": "20117", "stopName": "D. İLLER BANKASI GİRİŞ", "lat": "37.0336746", "lng": "35.3137603", "routes": "20005"}
{"stopId": "22045", "stopName": "ADASOKAĞI İLKOKULU", "lat": "36.943795", "lng": "35.317936", "routes": "22001"}
{"stopId": "23000", "stopName": "İMKB LİSESİ", "lat": "36.95853", "lng": "35.32462", "routes": "23002,23003"}
{"stopId": "23003", "stopName": "ÖZEN MERKEZ", "lat": "36.95475", "lng": "35.3255", "routes": "23002,23003"}
{"stopId": "23004", "stopName": "Z.ŞALGAMCI", "lat": "36.9564025", "lng": "35.3255847", "routes": "23002,23003"}
{"stopId": "23005", "stopName": "Z.AKTURK MARKET", "lat": "36.9625823", "lng": "35.3217167", "routes": "23002,23003"}
{"stopId": "23006", "stopName": "DEMOKRASİ İLK OKULU", "lat": "36.96456", "lng": "35.3207", "routes": "23003"}
{"stopId": "23007", "stopName": "A.EÇARŞAMBA", "lat": "36.9688013", "lng": "35.3226812", "routes": "23002,23003"}
{"stopId": "23008", "stopName": "özdemir market", "lat": "36.969386", "lng": "35.323853", "routes": "23002"}
{"stopId": "23010", "stopName": "C.ŞEKER", "lat": "36.975573", "lng": "35.328582", "routes": "23002,23003"}
{"stopId": "23011", "stopName": "BEY MAH. ÇIKIŞ", "lat": "36.97875", "lng": "35.32805", "routes": "23002,23003"}
{"stopId": "23012", "stopName": "ULUS PARKI", "lat": "36.98338", "lng": "35.33332", "routes": "23002,23003"}
{"stopId": "23013", "stopName": "ADLİYE", "lat": "36.99011", "lng": "35.32857", "routes": "23002,23003"}
{"stopId": "23014", "stopName": "TEKNOSA", "lat": "36.99023", "lng": "35.32489", "routes": "23002"}
{"stopId": "23015", "stopName": "Z.ATİLLA ALTIKAT", "lat": "36.990457", "lng": "35.323322", "routes": "23002,23003"}
{"stopId": "23016", "stopName": "ZİYAPAŞA IŞIK", "lat": "36.99517", "lng": "35.32191", "routes": "23002,23003"}
{"stopId": "23017", "stopName": "ÇİFTE MİNARE", "lat": "36.99507", "lng": "35.31889", "routes": "23002"}
{"stopId": "23019", "stopName": "D.BORSA GİDİŞ", "lat": "37.006252", "lng": "35.315971", "routes": "23002,23003"}
{"stopId": "23021", "stopName": "G.ŞIRD KADİR", "lat": "37.0264172", "lng": "35.3118114", "routes": "23002"}
{"stopId": "23022", "stopName": "ÇUKUROVA ELEK. IŞIK", "lat": "37.03734", "lng": "35.30614", "routes": "23003"}
{"stopId": "23023", "stopName": "ALİ SEPİCİ", "lat": "37.04321", "lng": "35.29917", "routes": "23003"}
{"stopId": "23024", "stopName": "F.DOĞ PRK BiM", "lat": "37.046345", "lng": "35.2881549", "routes": "23003"}
{"stopId": "23029", "stopName": "F.KURTTEPE KVŞK", "lat": "37.05602", "lng": "35.27534", "routes": "23003"}
{"stopId": "23031", "stopName": "O. UYGULAMA ÇIKIŞ", "lat": "37.058373", "lng": "35.280373", "routes": "23003"}
{"stopId": "23032", "stopName": "ZEYNEL ABİDİN CAMİ", "lat": "37.04949", "lng": "35.28615", "routes": "23003"}
{"stopId": "23033", "stopName": "P. Doğal park", "lat": "37.047095", "lng": "35.292105", "routes": "23002,23003"}
{"stopId": "23034", "stopName": "K.ADASA", "lat": "37.042447", "lng": "35.30125", "routes": "23002,23003"}
{"stopId": "23035", "stopName": "KENAN EVREN BLV.", "lat": "37.0369", "lng": "35.3062", "routes": "23003"}
{"stopId": "23036", "stopName": "K.TURKUAZ", "lat": "37.0271", "lng": "35.310585", "routes": "23002,23003"}
{"stopId": "23037", "stopName": "K.IŞIKLAR", "lat": "37.023891", "lng": "35.312881", "routes": "23002,23003"}
{"stopId": "23038", "stopName": "L.KARADENİZ", "lat": "37.01407", "lng": "35.31458", "routes": "23002,23003"}
{"stopId": "23039", "stopName": "L.BORSA DÖNÜŞ", "lat": "37.008163", "lng": "35.315578", "routes": "23003"}
{"stopId": "23041", "stopName": "ATİLLA ALTIKAT DÖNÜŞ", "lat": "36.99158", "lng": "35.32293", "routes": "23002,23003"}
{"stopId": "23042", "stopName": "KÜÇÜK SAAT", "lat": "36.986593", "lng": "35.325091", "routes": "23002,23003"}
{"stopId": "23043", "stopName": "ULU CAMİ", "lat": "36.98509", "lng": "35.33066", "routes": "23002,23003"}
{"stopId": "23044", "stopName": "1.İNÖNÜ İLK OKULU", "lat": "36.9806", "lng": "35.33045", "routes": "23002,23003"}
{"stopId": "23045", "stopName": "D. İSTASYON", "lat": "37.00055", "lng": "35.32008", "routes": "23003"}
{"stopId": "23048", "stopName": "YEŞİLBAĞLAR CAMİ", "lat": "37.0199", "lng": "35.31026", "routes": "23003"}
{"stopId": "23049", "stopName": "D.İSTASYON", "lat": "37.00277", "lng": "35.31729", "routes": "23003"}
{"stopId": "23050", "stopName": "BARBAROS PARKI", "lat": "36.96394", "lng": "35.32513", "routes": "23002"}
{"stopId": "23051", "stopName": "MERKEZ GİRİŞ", "lat": "36.95939", "lng": "35.3244", "routes": "23002"}
{"stopId": "23052", "stopName": "GÜNEY PARK STAD", "lat": "36.96706", "lng": "35.3266", "routes": "23002"}
{"stopId": "23053", "stopName": "OKUL YOLU", "lat": "36.97185", "lng": "35.32907", "routes": "23002"}
{"stopId": "23054", "stopName": "HÜRRİYET", "lat": "36.97202", "lng": "35.32802", "routes": "23002"}
{"stopId": "23055", "stopName": "L. MARSA GİDİŞ", "lat": "36.9967", "lng": "35.31171", "routes": "23002"}
{"stopId": "23056", "stopName": "ABDİ İPEKÇİ CD.", "lat": "37.01594", "lng": "35.31529", "routes": "23002"}
{"stopId": "23057", "stopName": "E.KARABUCAK", "lat": "37.013214", "lng": "35.318681", "routes": "23002"}
{"stopId": "23059", "stopName": "E. KÜPELİ", "lat": "37.0200355", "lng": "35.3134212", "routes": "23003"}
{"stopId": "23061", "stopName": "H.MARSA DÖNÜŞ", "lat": "36.996857", "lng": "35.31015", "routes": "23002"}
{"stopId": "23062", "stopName": "I.ACIBADEM", "lat": "36.995147", "lng": "35.31445", "routes": "23002"}
{"stopId": "23063", "stopName": "Y. BARBAROS GELİŞ", "lat": "36.95869", "lng": "35.324465", "routes": "23003"}
{"stopId": "23064", "stopName": "Z. HASTANE", "lat": "37.058802", "lng": "35.28105", "routes": "23003"}
{"stopId": "23071", "stopName": "G.MARSA GİDİŞ", "lat": "36.9965152", "lng": "35.3100154", "routes": "23002"}
{"stopId": "23073", "stopName": "H.EKSTREM", "lat": "37.047183", "lng": "35.287168", "routes": "23002"}
{"stopId": "23074", "stopName": "RUH SAG GDS", "lat": "37.050465", "lng": "35.26498", "routes": "23002"}
{"stopId": "23075", "stopName": "S.PETROL GDS", "lat": "37.058472", "lng": "35.228391", "routes": "23002"}
{"stopId": "23076", "stopName": "TOKİ GIRIS", "lat": "37.045637", "lng": "35.181383", "routes": "23002,29006"}
{"stopId": "23077", "stopName": "Z.KARAHAN CKS", "lat": "37.051821", "lng": "35.173777", "routes": "23002"}
{"stopId": "23078", "stopName": "I.PETROL DNS", "lat": "37.057987", "lng": "35.227393", "routes": "23002"}
{"stopId": "23079", "stopName": "T.RUH SAG DNS", "lat": "37.050915", "lng": "35.260628", "routes": "23002"}
{"stopId": "23080", "stopName": "DERMANCAN", "lat": "37.048475", "lng": "35.285875", "routes": "23002"}
{"stopId": "23081", "stopName": "J.KIRTASİYE", "lat": "37.047395", "lng": "35.287065", "routes": "23002,23003"}
{"stopId": "23082", "stopName": "A.DUT", "lat": "36.9672767", "lng": "35.3197775", "routes": "23003"}
{"stopId": "23083", "stopName": "B.A101", "lat": "36.9702822", "lng": "35.3253001", "routes": "23002,23003"}
{"stopId": "23084", "stopName": "M.HUR.ISIK", "lat": "36.979203", "lng": "35.328505", "routes": "23003"}
{"stopId": "24001", "stopName": "ÇETİNKAYA", "lat": "36.9894973", "lng": "35.3216852", "routes": "24021,24042,24050"}
{"stopId": "24004", "stopName": "ŞEHİR HASTANESİ KANAL", "lat": "37.030045", "lng": "35.352348", "routes": "24021"}
{"stopId": "24013", "stopName": "TAŞ KÖPRÜ", "lat": "36.9863088", "lng": "35.3292825", "routes": "24021,24042,24050"}
{"stopId": "24014", "stopName": "S.Paşa", "lat": "36.9914362", "lng": "35.3414096", "routes": "24021,24042,24050"}
{"stopId": "24015", "stopName": "OTOGAR ÇIKIŞ", "lat": "36.992887", "lng": "35.344491", "routes": "24021,24042,24050"}
{"stopId": "24020", "stopName": "SEPİCİ MERKEZ", "lat": "37.030019", "lng": "35.356979", "routes": "24021"}
{"stopId": "24021", "stopName": "TRAFO", "lat": "37.020008", "lng": "35.339577", "routes": "24021"}
{"stopId": "24022", "stopName": "SEYHAN PARK", "lat": "37.019837", "lng": "35.33352", "routes": "24021"}
{"stopId": "24023", "stopName": "KÖPRÜ GİDİŞ", "lat": "37.015245", "lng": "35.335787", "routes": "24021"}
{"stopId": "24024", "stopName": "SAĞLIK OCAĞI", "lat": "36.99913", "lng": "35.34288", "routes": "24021"}
{"stopId": "24026", "stopName": "SEPİCİ TOKİ GİRİŞİ", "lat": "37.02969", "lng": "35.355207", "routes": "24021"}
{"stopId": "24031", "stopName": "KARADENİZ CAFE", "lat": "37.060613", "lng": "35.3525", "routes": "24042"}
{"stopId": "24032", "stopName": "PERON", "lat": "37.054334", "lng": "35.359304", "routes": "24042,24050"}
{"stopId": "24033", "stopName": "RÖNESANS IŞIK", "lat": "37.028709", "lng": "35.344944", "routes": "24021,24042,24050"}
{"stopId": "24034", "stopName": "LOJMAN GİDİŞ", "lat": "37.015507", "lng": "35.3397", "routes": "24042,24050"}
{"stopId": "24035", "stopName": "TOKİ MERKEZ", "lat": "37.06322", "lng": "35.40599", "routes": "24042"}
{"stopId": "24036", "stopName": "OSMANLI SİTESİ", "lat": "37.060089", "lng": "35.400146", "routes": "24042"}
{"stopId": "24038", "stopName": "KARADENİZ CAFE DÖNÜŞ", "lat": "37.0615034", "lng": "35.3523846", "routes": "24042"}
{"stopId": "24039", "stopName": "KARAKOL", "lat": "37.05425", "lng": "35.3644602", "routes": "24042"}
{"stopId": "24040", "stopName": "YENİ STAT", "lat": "37.0667841", "lng": "35.3743146", "routes": "24042"}
{"stopId": "24041", "stopName": "OPTİMUM AVM DURAK", "lat": "36.989879", "lng": "35.339488", "routes": "24042,24050"}
{"stopId": "24042", "stopName": "MERKEZ CAMİİ", "lat": "36.9909379", "lng": "35.3335014", "routes": "24021,24042,24050"}
{"stopId": "24043", "stopName": "OPTİMUM KÖPRÜ", "lat": "36.9904194", "lng": "35.3362641", "routes": "24021,24042,24050"}
{"stopId": "24044", "stopName": "MÜZE KAVŞAĞI", "lat": "36.9913706", "lng": "35.3315058", "routes": "24021,24042,24050"}
{"stopId": "24049", "stopName": "KAZIM BAŞER ÇIKIŞ -1", "lat": "37.0128022", "lng": "35.3467066", "routes": "24042"}
{"stopId": "24051", "stopName": "toki büfe", "lat": "37.0715137", "lng": "35.4086275", "routes": "24042"}
{"stopId": "24052", "stopName": "TOKİ CAMİİ", "lat": "37.0687273", "lng": "35.4079784", "routes": "24042"}
{"stopId": "24060", "stopName": "BALCALI KAMPÜS", "lat": "37.0555711", "lng": "35.3602483", "routes": "24042"}
{"stopId": "24062", "stopName": "D.ŞEHİR HASTANESİ", "lat": "37.023113", "lng": "35.343286", "routes": "24021,24042"}
{"stopId": "24063", "stopName": "D.BALCALI KAMPÜS", "lat": "37.0572536", "lng": "35.3609189", "routes": "24042"}
{"stopId": "24064", "stopName": "TOKİ KAVŞAĞI SEPİCİ", "lat": "37.028307", "lng": "35.356892", "routes": "24021"}
{"stopId": "24069", "stopName": "ABİDİNPAŞA", "lat": "36.986626", "lng": "35.325105", "routes": "24021,24042,24050"}
{"stopId": "24070", "stopName": "KOLORDU", "lat": "37.0121335", "lng": "35.3512254", "routes": "24042,24050"}
{"stopId": "24071", "stopName": "MAHALLE ÇIKIŞ", "lat": "37.0201554", "lng": "35.3386481", "routes": "24021"}
{"stopId": "24079", "stopName": "JTM DURAK", "lat": "37.035156", "lng": "35.432149", "routes": "24050"}
{"stopId": "24080", "stopName": "MEZARLIK DÖNÜŞ", "lat": "37.041709", "lng": "35.43027", "routes": "24050"}
{"stopId": "24081", "stopName": "GENİŞ YOL", "lat": "37.036264", "lng": "35.419864", "routes": "24050"}
{"stopId": "24082", "stopName": "HANZADE", "lat": "37.05714", "lng": "35.387832", "routes": "24050"}
{"stopId": "25061", "stopName": "REAL ÇIKIŞ", "lat": "37.0149628", "lng": "35.2433899", "routes": "28007,28012"}
{"stopId": "26133", "stopName": "TOKİ ÇIKIŞ", "lat": "37.03137", "lng": "35.21412", "routes": "28007"}
{"stopId": "28000", "stopName": "MERKEZ ÇIKIŞ", "lat": "36.973915", "lng": "35.331253", "routes": "28001,28002,28003,28004,28005,28006,28007,28010,28012"}
{"stopId": "28001", "stopName": "TAŞ KÖPRÜ", "lat": "36.9855601", "lng": "35.3334743", "routes": "28001,28002,28003,28004,28005,28006,28007,28008,28009,28010,28011,28012"}
{"stopId": "28002", "stopName": "KÜLTÜR SİTESİ", "lat": "36.988838", "lng": "35.331902", "routes": "28001,28002,28003,28004,28005,28006,28007,28008,28009,28010,28011,28012"}
{"stopId": "28003", "stopName": "KÖŞEM CAFE DURAĞI", "lat": "36.990146", "lng": "35.324065", "routes": "28001,28002,28003,28004,28005,28006,28007,28008,28009,28010,28011,28012"}
{"stopId": "28004", "stopName": "KURUKÖPRÜ", "lat": "36.99012", "lng": "35.32135", "routes": "28001,28002,28003,28004,28005,28006,28007,28009,28010,28011,28012"}
{"stopId": "28005", "stopName": "YEŞİLEVLER PTT", "lat": "36.992762", "lng": "35.310082", "routes": "28001,28002,28003,28004,28005,28006,28007,28009,28010,28011,28012"}
{"stopId": "28006", "stopName": "ŞAKİRPAŞA ÜST GEÇİT", "lat": "36.9942185", "lng": "35.2899833", "routes": "28001,28002,28003,28004,28005,28006,28007,28009,28010,28011,28012"}
{"stopId": "28007", "stopName": "İŞ MERKEZİ", "lat": "36.996441", "lng": "35.259373", "routes": "28001,28002,28003,28004,28005,28006,28007,28009,28010,28011,28012"}
{"stopId": "28009", "stopName": "K.DİKİLİ PETROL", "lat": "37.0039854", "lng": "35.2046214", "routes": "28001"}
{"stopId": "28010", "stopName": "K.DİKİLİ PTT", "lat": "37.001305", "lng": "35.207363", "routes": "28001"}
{"stopId": "28011", "stopName": "K.DİKİLİ TREN HATTI", "lat": "36.996304", "lng": "35.212158", "routes": "28001"}
{"stopId": "28014", "stopName": "S.HAMZALI CAMİ", "lat": "36.9791134", "lng": "35.225455", "routes": "28002"}
{"stopId": "28016", "stopName": "100 YIL CARREFOUR REAL KAVŞAĞI", "lat": "37.014835", "lng": "35.251064", "routes": "28003"}
{"stopId": "28017", "stopName": "CARREFOUR SON DURAK", "lat": "37.047343", "lng": "35.248707", "routes": "28003"}
{"stopId": "28018", "stopName": "CARREFOUR TEPE(BİM)", "lat": "37.042393", "lng": "35.251953", "routes": "28003"}
{"stopId": "28019", "stopName": "KİBAR RESTAURANT", "lat": "37.025665", "lng": "35.253952", "routes": "28003"}
{"stopId": "28020", "stopName": "100 YIL REAL KAVŞAĞI", "lat": "37.0162054", "lng": "35.2514755", "routes": "28004"}
{"stopId": "28022", "stopName": "100 YIL ESKİ KARAKOL", "lat": "37.0468477", "lng": "35.2409385", "routes": "28004"}
{"stopId": "28023", "stopName": "100 YIL HALI SAHA", "lat": "37.039662", "lng": "35.243835", "routes": "28004"}
{"stopId": "28024", "stopName": "100 YIL KONTROL TEPESİ", "lat": "37.041645", "lng": "35.251484", "routes": "28004"}
{"stopId": "28025", "stopName": "KİBAR RESTAURANT", "lat": "37.025665", "lng": "35.253952", "routes": "28004"}
{"stopId": "28026", "stopName": "100 YIL (TOKİ)REAL DÖNÜŞ", "lat": "37.015873", "lng": "35.240372", "routes": "28004"}
{"stopId": "28027", "stopName": "ÇİÇEKÇİ", "lat": "37.014503", "lng": "35.244991", "routes": "28004,28007,28012"}
{"stopId": "28028", "stopName": "ÇUKOBİRLİK", "lat": "36.983994", "lng": "35.116852", "routes": "28005"}
{"stopId": "28029", "stopName": "KASAPLAR", "lat": "36.98494", "lng": "35.12237", "routes": "28005"}
{"stopId": "28030", "stopName": "ZEYTİNLİ KAVŞAĞI", "lat": "36.987717", "lng": "35.14072", "routes": "28005"}
{"stopId": "28031", "stopName": "PAKYAĞ KARAKUYU Ç.BİRLİK", "lat": "36.994116", "lng": "35.206908", "routes": "28005"}
{"stopId": "28033", "stopName": "NAKLİYATÇILAR MERKEZ", "lat": "36.98378", "lng": "35.208248", "routes": "28006"}
{"stopId": "28034", "stopName": "NAKLİYAT S.HAMZALI YOLÇATI", "lat": "36.990616", "lng": "35.215984", "routes": "28002,28006"}
{"stopId": "28036", "stopName": "ŞAMBAYAT TOKİ MERKEZ", "lat": "37.037498", "lng": "35.209152", "routes": "28007"}
{"stopId": "28037", "stopName": "EMEK YAPI", "lat": "37.029694", "lng": "35.22226", "routes": "28007"}
{"stopId": "28038", "stopName": "100 YIL (TOKİ)REAL DÖNÜŞ", "lat": "37.015873", "lng": "35.240372", "routes": "28007,28012"}
{"stopId": "28040", "stopName": "YÜKSEK BİNALAR Y.OBA", "lat": "37.003883", "lng": "35.244236", "routes": "28007,28012"}
{"stopId": "28041", "stopName": "TOKİLER YÜZME HAVUZU", "lat": "37.001862", "lng": "35.237728", "routes": "28007,28012"}
{"stopId": "28042", "stopName": "kültür sitesi", "lat": "36.9877823", "lng": "35.3324863", "routes": "28008"}
{"stopId": "28043", "stopName": "F.PAŞA ÇARŞI ÇIKIŞ", "lat": "36.990017", "lng": "35.330978", "routes": "28008"}
{"stopId": "28044", "stopName": "KURUKÖPRÜ", "lat": "36.99012", "lng": "35.32135", "routes": "28008"}
{"stopId": "28045", "stopName": "KURUKÖPRÜ ÇIKIŞ", "lat": "36.99091", "lng": "35.32104", "routes": "28008"}
{"stopId": "28046", "stopName": "ŞAKİRPAŞA ÜST GEÇİT", "lat": "36.994255", "lng": "35.289986", "routes": "28008"}
{"stopId": "28047", "stopName": "FEVZİPAŞA MERKEZ DÖNÜŞ", "lat": "37.003047", "lng": "35.256877", "routes": "28008"}
{"stopId": "28048", "stopName": "FEVZİPAŞA OKULYOLU", "lat": "37.001545", "lng": "35.264992", "routes": "28008"}
{"stopId": "28049", "stopName": "YİĞİTLER MARKET", "lat": "37.001244", "lng": "35.268738", "routes": "28008"}
{"stopId": "28050", "stopName": "FEVZİPAŞA DÖRTYOL", "lat": "36.999599", "lng": "35.274384", "routes": "28008"}
{"stopId": "28051", "stopName": "SANAYİ MERKEZ DÖNÜŞ", "lat": "36.981892", "lng": "35.25602", "routes": "28009"}
{"stopId": "28052", "stopName": "OTOGAR ÜST GEÇİT", "lat": "36.995811", "lng": "35.265079", "routes": "28005,28009,28011"}
{"stopId": "28053", "stopName": "KARAKUYU MERKEZ", "lat": "37.028042", "lng": "35.143436", "routes": "28010"}
{"stopId": "28054", "stopName": "KARAKUYU KUYUMCU", "lat": "37.032658", "lng": "35.15321", "routes": "28010"}
{"stopId": "28055", "stopName": "PAKYAĞ KARAKUYU Ç.BİRLİK", "lat": "36.994115", "lng": "35.206907", "routes": "28010"}
{"stopId": "28056", "stopName": "OTOGAR ÜST GEÇİT", "lat": "36.995811", "lng": "35.265079", "routes": "28010"}
{"stopId": "28057", "stopName": "OTOGAR", "lat": "36.995835", "lng": "35.26485", "routes": "28001,28002,28003,28004,28006,28007,28010,28012"}
{"stopId": "28058", "stopName": "KAHVELER DURAĞI", "lat": "36.9946119", "lng": "35.2820083", "routes": "28001,28002,28003,28004,28005,28006,28007,28008,28009,28010,28011,28012"}
{"stopId": "28059", "stopName": "KURUKÖPRÜ KARAKOLU", "lat": "36.9914649", "lng": "35.315552", "routes": "28001,28003,28004,28005,28006,28007,28008,28010,28012"}
{"stopId": "28060", "stopName": "KÜÇÜK SAAT", "lat": "36.9882684", "lng": "35.3233653", "routes": "28001,28002,28003,28004,28005,28006,28007,28008,28009,28010,28012"}
{"stopId": "28061", "stopName": "KIZILAY CADDESİ", "lat": "36.985059", "lng": "35.330685", "routes": "28001,28002,28003,28004,28005,28006,28007,28008,28009,28010,28011,28012"}
{"stopId": "28062", "stopName": "KÜÇÜK DİKİLİ BİNGÖL", "lat": "37.0012248", "lng": "35.1944879", "routes": "28001"}
{"stopId": "28063", "stopName": "K.DİKİLİ SABANCI SİTESİ", "lat": "37.002313", "lng": "35.215452", "routes": "28001"}
{"stopId": "28064", "stopName": "İzzet begoviç kav.", "lat": "37.0226639", "lng": "35.2536091", "routes": "28003"}
{"stopId": "28065", "stopName": "K.DİKİLİ GİRİŞ", "lat": "36.9950682", "lng": "35.2131292", "routes": "28001"}
{"stopId": "28066", "stopName": "SABANCI SİTESİ GİRİŞİ", "lat": "36.999574", "lng": "35.2188681", "routes": "28001"}
{"stopId": "28067", "stopName": "Y CEP", "lat": "36.9969403", "lng": "35.2602945", "routes": "28002,28003,28004,28005,28006,28007,28009,28010,28011,28012"}
{"stopId": "28068", "stopName": "K.DİKİLİ BİNGÖL", "lat": "36.994865", "lng": "35.189697", "routes": "28001"}
{"stopId": "28069", "stopName": "KURU KÖPRÜ ÇIKIŞ", "lat": "36.9912421", "lng": "35.3209486", "routes": "28001,28002,28003,28004,28005,28006,28007,28009,28010,28011,28012"}
{"stopId": "28070", "stopName": "ŞEHİTDURAN MAH", "lat": "36.9773026", "lng": "35.3332627", "routes": "28001,28002,28003,28004,28005,28006,28007,28009,28011,28012"}
{"stopId": "28071", "stopName": "REGÜLATÖR", "lat": "36.9801439", "lng": "35.3340486", "routes": "28001,28002,28003,28004,28005,28006,28007,28009,28010,28011,28012"}
{"stopId": "28072", "stopName": "Ayas koleji", "lat": "36.9944341", "lng": "35.2135691", "routes": "28002"}
{"stopId": "28073", "stopName": "SARI HAMZALI", "lat": "36.9791711", "lng": "35.2184667", "routes": "28002"}
{"stopId": "28074", "stopName": "Carrefour vatan bilg.", "lat": "37.049063", "lng": "35.25305", "routes": "28003"}
{"stopId": "28075", "stopName": "GÖÇMEN EVLERİ", "lat": "37.0516117", "lng": "35.2529737", "routes": "28003"}
{"stopId": "28076", "stopName": "100 YIL PARK", "lat": "37.0488328", "lng": "35.2411891", "routes": "28004"}
{"stopId": "28077", "stopName": "100 YIL REAL GİRİŞ", "lat": "37.015919", "lng": "35.249413", "routes": "28004"}
{"stopId": "28078", "stopName": "HAL", "lat": "36.996979", "lng": "35.2490332", "routes": "28001,28002"}
{"stopId": "28083", "stopName": "GERDAN", "lat": "36.968117", "lng": "35.108109", "routes": "28005"}
{"stopId": "28085", "stopName": "ADLİYE", "lat": "36.9903208", "lng": "35.327115", "routes": "28008"}
{"stopId": "28087", "stopName": "AYKAN", "lat": "36.995573", "lng": "35.27167", "routes": "28002,28003,28004,28005,28006,28007,28009,28010,28011,28012"}
{"stopId": "28088", "stopName": "nakliyacılar", "lat": "36.9858025", "lng": "35.2087522", "routes": "28006"}
{"stopId": "28089", "stopName": "NAKLİYATÇILAR -1", "lat": "36.9854769", "lng": "35.2111877", "routes": "28006"}
{"stopId": "28090", "stopName": "NAKLİYATÇILAR-3", "lat": "36.9894382", "lng": "35.2130863", "routes": "28006"}
{"stopId": "28091", "stopName": "ŞAMBAYAD REAL ÇARŞI GİRİŞİ", "lat": "37.014046", "lng": "35.245045", "routes": "28007,28012"}
{"stopId": "28102", "stopName": "ALTINORDU ADANA", "lat": "37.039309", "lng": "35.2462", "routes": "28004"}
{"stopId": "28103", "stopName": "81331 SK.", "lat": "37.042709", "lng": "35.242671", "routes": "28004"}
{"stopId": "28104", "stopName": "85267 SK. 3A", "lat": "37.04789", "lng": "35.240975", "routes": "28004"}
{"stopId": "28105", "stopName": "ÇOCUK PARKI", "lat": "37.04616", "lng": "35.24197", "routes": "28004"}
{"stopId": "28106", "stopName": "SUNGURBEY MERKEZ", "lat": "37.054292", "lng": "35.23851", "routes": "28012"}
{"stopId": "29001", "stopName": "KURTTEPE güzergah", "lat": "37.0541457", "lng": "35.267335", "routes": "29006"}
{"stopId": "29002", "stopName": "MİTHATPAŞA SON DURAK", "lat": "37.005445", "lng": "35.308146", "routes": "29004"}
{"stopId": "29007", "stopName": "SAĞLIK OCAĞI GİRİŞİ", "lat": "37.003447", "lng": "35.2954966", "routes": "29006"}
{"stopId": "29008", "stopName": "KÖPRÜ GİRİŞ", "lat": "37.0111041", "lng": "35.291808", "routes": "29006"}
{"stopId": "29009", "stopName": "KURTTEPE SON DURAK", "lat": "37.05833", "lng": "35.2644", "routes": "29002"}
{"stopId": "29012", "stopName": "TEKNOSA", "lat": "36.995195", "lng": "35.320666", "routes": "29002"}
{"stopId": "29013", "stopName": "ÇETİNKAYA", "lat": "36.990141", "lng": "35.321378", "routes": "29002"}
{"stopId": "29014", "stopName": "D. MARSA", "lat": "36.9940243", "lng": "35.309376", "routes": "29002"}
{"stopId": "29015", "stopName": "G.TREN HATTI", "lat": "36.9998483", "lng": "35.2994164", "routes": "29006"}
{"stopId": "29016", "stopName": "TURGUT ÖZAL LİSESİ", "lat": "37.01982", "lng": "35.28754", "routes": "29006"}
{"stopId": "29017", "stopName": "TEKEL BAYİİ", "lat": "37.00651", "lng": "35.30495", "routes": "29004"}
{"stopId": "29018", "stopName": "D. KÖPRÜ", "lat": "37.00977", "lng": "35.28996", "routes": "29002"}
{"stopId": "29019", "stopName": "D.SEYHAN UYGULAMA", "lat": "37.05784", "lng": "35.27955", "routes": "29006"}
{"stopId": "29020", "stopName": "MAVİ BULVAR", "lat": "37.0299265", "lng": "35.273553", "routes": "29006"}
{"stopId": "29022", "stopName": "D.TREN HATTI", "lat": "36.9938873", "lng": "35.3056181", "routes": "29002"}
{"stopId": "29023", "stopName": "G.GÜNDOĞDU", "lat": "37.050314", "lng": "35.270956", "routes": "29006"}
{"stopId": "29024", "stopName": "D.GÜNDOĞDU", "lat": "37.0466947", "lng": "35.2717172", "routes": "29002"}
{"stopId": "29028", "stopName": "Çetinkaya Öğrenci yurdu", "lat": "36.990291", "lng": "35.319363", "routes": "29006"}
{"stopId": "29029", "stopName": "ABİDİNPAŞA GİRİŞİ", "lat": "36.9864324", "lng": "35.326494", "routes": "29006"}
{"stopId": "29030", "stopName": "TAŞ KÖPRÜ", "lat": "36.985746", "lng": "35.333403", "routes": "29002"}
{"stopId": "29031", "stopName": "Taşköprü köy durağı", "lat": "36.987139", "lng": "35.332789", "routes": "29002"}
{"stopId": "29032", "stopName": "Bosnalı Restorant", "lat": "36.988092", "lng": "35.332359", "routes": "29002"}
{"stopId": "29033", "stopName": "PETROL ÇIKIŞ", "lat": "36.9899175", "lng": "35.3311438", "routes": "29002"}
{"stopId": "29034", "stopName": "Kurttepe-1 güzergah", "lat": "37.0534823", "lng": "35.268459", "routes": "29006"}
{"stopId": "29035", "stopName": "Kuttepe -1 son durak", "lat": "37.0599235", "lng": "35.2655079", "routes": "29006"}
{"stopId": "29036", "stopName": "S.Demirel blv. çıkış", "lat": "37.052442", "lng": "35.270962", "routes": "29006"}
{"stopId": "29037", "stopName": "D.GROSERİ", "lat": "37.02313", "lng": "35.28028", "routes": "29002"}
{"stopId": "29043", "stopName": "BELEDİYE EVLERİ", "lat": "37.0346603", "lng": "35.2732078", "routes": "29006"}
{"stopId": "29044", "stopName": "MİTHAT PAŞA ÇIKIŞ", "lat": "37.0049748", "lng": "35.3083285", "routes": "29004"}
{"stopId": "29045", "stopName": "G.MİTHAT PAŞA", "lat": "37.003642", "lng": "35.309213", "routes": "29004"}
{"stopId": "29049", "stopName": "SAĞLIK OCAĞI ÇIKIŞ", "lat": "37.0024937", "lng": "35.296607", "routes": "29006"}
{"stopId": "29050", "stopName": "ABİDİNPAŞA  ÇIKIŞ", "lat": "36.98647", "lng": "35.326088", "routes": "29002"}
{"stopId": "29051", "stopName": "ÇETİNKAYA ÇIKIŞ", "lat": "36.991196", "lng": "35.320967", "routes": "29002"}
{"stopId": "31001", "stopName": "ESKİ DURAK", "lat": "36.9804", "lng": "35.256843", "routes": "31003"}
{"stopId": "31002", "stopName": "GÜVENLİK", "lat": "36.986258", "lng": "35.25424", "routes": "31003"}
{"stopId": "31003", "stopName": "ASLAN MARKET", "lat": "36.987377", "lng": "35.262348", "routes": "31003"}
{"stopId": "31004", "stopName": "SALI PAZARI", "lat": "36.9874333", "lng": "35.2698784", "routes": "31003"}
{"stopId": "31005", "stopName": "SİVASLI KAHVESİ", "lat": "36.9876322", "lng": "35.2747696", "routes": "31003"}
{"stopId": "31006", "stopName": "ÇAY OCAĞI", "lat": "36.98827", "lng": "35.283157", "routes": "31003"}
{"stopId": "31007", "stopName": "TEKEL ÜST GEÇİT", "lat": "36.992848", "lng": "35.305997", "routes": "31003"}
{"stopId": "31008", "stopName": "ÇETİNKAYA", "lat": "36.9900412", "lng": "35.3201284", "routes": "31003"}
{"stopId": "31009", "stopName": "ABİDİNPAŞA", "lat": "36.986485", "lng": "35.32677", "routes": "31003"}
{"stopId": "31010", "stopName": "KÜLTÜR SİTESİ", "lat": "36.989118", "lng": "35.331957", "routes": "31003"}
{"stopId": "31011", "stopName": "AKDENİZ OTELİ", "lat": "36.99022", "lng": "35.32517", "routes": "31003"}
{"stopId": "31012", "stopName": "KURU KÖPRÜ", "lat": "36.990265", "lng": "35.32132", "routes": "31003"}
{"stopId": "31013", "stopName": "ŞAKİRPAŞA KONAĞI", "lat": "36.993887", "lng": "35.287816", "routes": "31003"}
{"stopId": "31014", "stopName": "Ş.İLBEY GÜLBEY İLKOKULU", "lat": "36.992055", "lng": "35.269128", "routes": "31003"}
{"stopId": "31015", "stopName": "YÜZME HAVUZU", "lat": "36.9804", "lng": "35.272138", "routes": "31003"}
{"stopId": "31016", "stopName": "ÇAY OCAĞI", "lat": "36.9881971", "lng": "35.2832052", "routes": "31003"}
{"stopId": "31017", "stopName": "TAŞ KÖPRÜ", "lat": "36.9861645", "lng": "35.3332868", "routes": "31003"}
{"stopId": "31018", "stopName": "TAŞKÖPRÜ KÖY DURAĞI", "lat": "36.9872914", "lng": "35.3327288", "routes": "31003"}
{"stopId": "31019", "stopName": "SİNEMA MÜZESİ", "lat": "36.9884654", "lng": "35.3321978", "routes": "31003"}
{"stopId": "31020", "stopName": "kaykaç makine", "lat": "36.977222", "lng": "35.2577932", "routes": "31003"}
{"stopId": "31022", "stopName": "KOSGEB", "lat": "36.9828127", "lng": "35.2556561", "routes": "31003"}
{"stopId": "31023", "stopName": "Yag Cami", "lat": "36.9840884", "lng": "35.3272813", "routes": "31003"}
{"stopId": "31024", "stopName": "Eski Vilayet", "lat": "36.98315", "lng": "35.332981", "routes": "31003"}
{"stopId": "32000", "stopName": "SAPEKSA SON DURAK", "lat": "36.99357", "lng": "35.24472", "routes": "32020,32021"}
{"stopId": "32001", "stopName": "HAL ZEYTİNLİK", "lat": "36.99219", "lng": "35.24438", "routes": "32005,32020,32021"}
{"stopId": "32002", "stopName": "ÇAYÇI DURAĞI", "lat": "36.97608", "lng": "35.28808", "routes": "32005"}
{"stopId": "32003", "stopName": "PETROL AYTEMİZ", "lat": "36.97752", "lng": "35.29676", "routes": "32004,32005"}
{"stopId": "32004", "stopName": "GÜL BAHÇESİ KIBRIS KÖŞE", "lat": "36.977673", "lng": "35.298137", "routes": "32004,32005"}
{"stopId": "32005", "stopName": "KAVAK HIZARI", "lat": "36.97826", "lng": "35.30532", "routes": "32003,32004"}
{"stopId": "32006", "stopName": "POSTANE SOKAĞI", "lat": "36.97857", "lng": "35.31057", "routes": "32003,32004"}
{"stopId": "32010", "stopName": "ÇETİNKAYA", "lat": "36.98907", "lng": "35.32084", "routes": "32001,32002,32003,32004,32005"}
{"stopId": "32011", "stopName": "YONCA DURAĞI", "lat": "36.98834", "lng": "35.32332", "routes": "32001,32002,32003,32004,32005"}
{"stopId": "32012", "stopName": "MESTEN HAMAMI", "lat": "36.98591", "lng": "35.32492", "routes": "32001,32002,32003,32004,32005"}
{"stopId": "32013", "stopName": "MESTEN HAMAMI ÇIKIŞ", "lat": "36.98535", "lng": "35.32491", "routes": "32001,32002,32003,32004,32005"}
{"stopId": "32017", "stopName": "D.POSTANE SOKAĞI", "lat": "36.978749", "lng": "35.312914", "routes": "32005"}
{"stopId": "32018", "stopName": "D.KAVAK HIZARI", "lat": "36.9783114", "lng": "35.30694", "routes": "32005"}
{"stopId": "32022", "stopName": "KIBRIS CD. SON DURAK ÇIKIŞ", "lat": "36.987197", "lng": "35.303091", "routes": "32003"}
{"stopId": "32023", "stopName": "KIBRIS CD. KÖŞE", "lat": "36.97886", "lng": "35.30204", "routes": "32003"}
{"stopId": "32024", "stopName": "ÖZEZEN PETROL", "lat": "36.96452", "lng": "35.30822", "routes": "32002"}
{"stopId": "32026", "stopName": "GÜNEY ADANA HST.", "lat": "36.971111", "lng": "35.308738", "routes": "32002"}
{"stopId": "32027", "stopName": "KÖŞE MANAV", "lat": "36.97365", "lng": "35.30792", "routes": "32002"}
{"stopId": "32029", "stopName": "ÇEŞME", "lat": "36.97693", "lng": "35.31297", "routes": "32001,32002"}
{"stopId": "32032", "stopName": "SON DURAK SET", "lat": "36.96572", "lng": "35.28819", "routes": "32001"}
{"stopId": "32033", "stopName": "KARASU SET", "lat": "36.9660664", "lng": "35.2886148", "routes": "32001"}
{"stopId": "32035", "stopName": "PETROL", "lat": "36.96952", "lng": "35.29951", "routes": "32001"}
{"stopId": "32036", "stopName": "BATUMAN", "lat": "36.97185", "lng": "35.30055", "routes": "32001"}
{"stopId": "32038", "stopName": "TAPU DAİRESİ", "lat": "36.98355", "lng": "35.322785", "routes": "32001,32002,32003,32004,32005"}
{"stopId": "32039", "stopName": "KAYA KAĞIT", "lat": "36.982363", "lng": "35.246723", "routes": "32005"}
{"stopId": "32040", "stopName": "STAR MÜZİKOL", "lat": "36.982647", "lng": "35.321497", "routes": "32001,32002,32003,32004,32005"}
{"stopId": "32043", "stopName": "İLHAN GİYİM", "lat": "36.976813", "lng": "35.29327", "routes": "32004"}
{"stopId": "32045", "stopName": "SEVGİ TAKSİ", "lat": "36.980868", "lng": "35.318723", "routes": "32001,32002,32003,32004,32005"}
{"stopId": "32046", "stopName": "Dağlıoglu", "lat": "36.969834", "lng": "35.307798", "routes": "32002"}
{"stopId": "32048", "stopName": "YAĞMUR", "lat": "36.97916", "lng": "35.315612", "routes": "32001,32002,32003,32004,32005"}
{"stopId": "32049", "stopName": "DENETLEME", "lat": "36.977945", "lng": "35.302203", "routes": "32003,32004,32005"}
{"stopId": "32050", "stopName": "KIBRIS CD MERKEZ ÇIKIŞ", "lat": "36.982799", "lng": "35.302868", "routes": "32003"}
{"stopId": "32051", "stopName": "KUMCU", "lat": "36.968157", "lng": "35.292652", "routes": "32001"}
{"stopId": "32052", "stopName": "KARAKOL", "lat": "36.973345", "lng": "35.306227", "routes": "32001"}
{"stopId": "32054", "stopName": "GÜLBAHÇESİ ÇAYCI", "lat": "36.976062", "lng": "35.287958", "routes": "32004"}
{"stopId": "32055", "stopName": "GÜLBAHÇESİ KONTROL", "lat": "36.975008", "lng": "35.282203", "routes": "32004"}
{"stopId": "32056", "stopName": "B.evler cad", "lat": "36.9675181", "lng": "35.2910082", "routes": "32001"}
{"stopId": "32057", "stopName": "Bahcelievler cad", "lat": "36.9666095", "lng": "35.2893522", "routes": "32001"}
{"stopId": "32059", "stopName": "Dogus Halısaha", "lat": "36.962979", "lng": "35.309329", "routes": "32002"}
{"stopId": "32060", "stopName": "12042 Sk.", "lat": "36.966215", "lng": "35.306777", "routes": "32002"}
{"stopId": "32061", "stopName": "Zöhre Halısaha", "lat": "36.968477", "lng": "35.304887", "routes": "32002"}
{"stopId": "32062", "stopName": "KIBRIS CD SON", "lat": "36.986635", "lng": "35.303095", "routes": "32003"}
{"stopId": "32063", "stopName": "Nur Camii", "lat": "36.981159", "lng": "35.302666", "routes": "32003"}
{"stopId": "32064", "stopName": "Uçakalanı Ortaokulu", "lat": "36.9689798", "lng": "35.2803668", "routes": "32004"}
{"stopId": "32065", "stopName": "Uçakalanı Ortaokulu 2", "lat": "36.9699355", "lng": "35.2802005", "routes": "32004"}
{"stopId": "32066", "stopName": "Uçakalanı Ortaokulu 3", "lat": "36.972205", "lng": "35.279745", "routes": "32004"}
{"stopId": "32067", "stopName": "Ortaokul dönüş", "lat": "36.974281", "lng": "35.279594", "routes": "32004"}
{"stopId": "32068", "stopName": "Preveze Anadolu Lisesi", "lat": "36.989593", "lng": "35.244322", "routes": "32005"}
{"stopId": "32069", "stopName": "46129 SK.", "lat": "36.986455", "lng": "35.245192", "routes": "32005"}
{"stopId": "32070", "stopName": "Kanal boyu", "lat": "36.978044", "lng": "35.251094", "routes": "32005"}
{"stopId": "32071", "stopName": "kanal boyu2", "lat": "36.973089", "lng": "35.26165", "routes": "32005"}
{"stopId": "32072", "stopName": "Hicret camii", "lat": "36.972318", "lng": "35.272851", "routes": "32005"}
{"stopId": "32073", "stopName": "Obalar caddesi sonu", "lat": "36.974399", "lng": "35.279578", "routes": "32005"}
{"stopId": "32074", "stopName": "Hospital", "lat": "36.975601", "lng": "35.284935", "routes": "32005"}
{"stopId": "32075", "stopName": "Donus 1", "lat": "36.980276", "lng": "35.317778", "routes": "32001,32002,32003,32004,32005"}
{"stopId": "32076", "stopName": "Donus 2", "lat": "36.981896", "lng": "35.320203", "routes": "32001,32002,32003,32004,32005"}
{"stopId": "32077", "stopName": "ÇETİNKAYA 1", "lat": "36.985911", "lng": "35.321361", "routes": "32001,32002,32003,32004,32005"}
{"stopId": "32078", "stopName": "ÇETİNKAYA ÇIKIŞ", "lat": "36.989476", "lng": "35.322026", "routes": "32001,32002,32003,32004,32005"}
{"stopId": "33010", "stopName": "POLİS KOLEJİ", "lat": "36.98379", "lng": "35.3788668", "routes": "33003"}
{"stopId": "33012", "stopName": "ALTINOVA", "lat": "36.987199", "lng": "35.354379", "routes": "33003"}
{"stopId": "33013", "stopName": "GİZERLER", "lat": "36.9918993", "lng": "35.3272016", "routes": "33003"}
{"stopId": "33014", "stopName": "ÇETİNKAYA", "lat": "36.9904511", "lng": "35.3210625", "routes": "33003"}
{"stopId": "33015", "stopName": "KÜÇÜK SAAT", "lat": "36.988213", "lng": "35.3234649", "routes": "33003"}
{"stopId": "33016", "stopName": "MERKEZ CAMİİ", "lat": "36.990639", "lng": "35.333797", "routes": "33003"}
{"stopId": "33017", "stopName": "SARIÇAM POSTANESİ", "lat": "36.988548", "lng": "35.344952", "routes": "33003"}
{"stopId": "33026", "stopName": "DAS PETROL", "lat": "36.983688", "lng": "35.393932", "routes": "33003"}
{"stopId": "33028", "stopName": "SARIÇAM MERKEZ DÖNÜŞ", "lat": "37.018608", "lng": "35.398968", "routes": "30008"}
{"stopId": "33033", "stopName": "YÜREĞİR OTOGARI", "lat": "36.989224", "lng": "35.3424439", "routes": "33003"}
{"stopId": "33034", "stopName": "OPTİMUM DURAK", "lat": "36.989862", "lng": "35.33959", "routes": "33003"}
{"stopId": "33035", "stopName": "ESKİ GARAJLAR", "lat": "36.9913621", "lng": "35.3315219", "routes": "33003"}
{"stopId": "33036", "stopName": "ABİDİNPAŞA CADDESİ", "lat": "36.9863959", "lng": "35.3274718", "routes": "33003"}
{"stopId": "33037", "stopName": "ASRİ MEZARLIK", "lat": "36.9867593", "lng": "35.3540842", "routes": "33003"}
{"stopId": "33043", "stopName": "Ahmet Zenbilci Kalkış", "lat": "37.027469", "lng": "35.432708", "routes": "33003"}
{"stopId": "33047", "stopName": "Zenbilci blv. giriş", "lat": "37.019905", "lng": "35.415422", "routes": "33003"}
{"stopId": "35011", "stopName": "SEYHAN OTELi", "lat": "36.991879", "lng": "35.327538", "routes": "22001,35001"}
{"stopId": "35013", "stopName": "CETiNKAYA", "lat": "36.992553", "lng": "35.320324", "routes": "22001,35001"}
{"stopId": "35026", "stopName": "TANDIR", "lat": "36.9642006", "lng": "35.2988188", "routes": "35001"}
{"stopId": "35037", "stopName": "AKKAPI SAĞLIK", "lat": "36.9658487", "lng": "35.3005075", "routes": "35001"}
{"stopId": "40001", "stopName": "1197 SK. 1A", "lat": "37.067196", "lng": "35.3893051", "routes": "118,140"}
{"stopId": "40002", "stopName": "1197 SK. 1B", "lat": "37.0671083", "lng": "35.3891867", "routes": "118,140"}
{"stopId": "40003", "stopName": "1197 SK. 2A", "lat": "37.069437", "lng": "35.385378", "routes": "118,140"}
{"stopId": "40004", "stopName": "1197 SK. 2B", "lat": "37.069437", "lng": "35.385378", "routes": "118,140"}
{"stopId": "40005", "stopName": "1197 SK. 3A", "lat": "37.0706306", "lng": "35.3841888", "routes": "118,140"}
{"stopId": "40006", "stopName": "1197 SK. 3B", "lat": "37.0705152", "lng": "35.3840777", "routes": "118,140"}
{"stopId": "40007", "stopName": "18023 SK. 1A", "lat": "37.0823479", "lng": "35.4100451", "routes": "118,140,158,162,17035"}
{"stopId": "40008", "stopName": "18023 SK. 1B", "lat": "37.082515", "lng": "35.4099783", "routes": "118,140"}
{"stopId": "40009", "stopName": "18023 SK. 2A", "lat": "37.084385", "lng": "35.4122495", "routes": "118,140"}
{"stopId": "40010", "stopName": "18023 SK. 2B", "lat": "37.0844828", "lng": "35.4120688", "routes": "118,140"}
{"stopId": "40011", "stopName": "18025 SK. 1A", "lat": "37.0838827", "lng": "35.4133965", "routes": "118,140"}
{"stopId": "40012", "stopName": "18025 SK. 1B", "lat": "37.0839082", "lng": "35.413203", "routes": "118,140"}
{"stopId": "40013", "stopName": "18030 SK. 1A", "lat": "37.080386", "lng": "35.412028", "routes": "118,140,158,162,17035"}
{"stopId": "40014", "stopName": "18030 SK. 1A", "lat": "37.0761351", "lng": "35.4130954", "routes": "162,250,17035"}
{"stopId": "40015", "stopName": "18030 SK. 1B", "lat": "37.0800968", "lng": "35.4119956", "routes": "118,140,158,162"}
{"stopId": "40016", "stopName": "18030 SK. 1B", "lat": "37.0761215", "lng": "35.4129284", "routes": "113,162,250,24042"}
{"stopId": "40017", "stopName": "18030 SK. 2A", "lat": "37.0771552", "lng": "35.4129548", "routes": "162,250,17035"}
{"stopId": "40018", "stopName": "18030 SK. 2B", "lat": "37.0771518", "lng": "35.4128308", "routes": "113,162,250,24042"}
{"stopId": "40019", "stopName": "akkuyu toki camii", "lat": "37.078599", "lng": "35.4127667", "routes": "118,158,162,250,17035,24042"}
{"stopId": "40020", "stopName": "1812 SK. 1B", "lat": "37.078626", "lng": "35.413583", "routes": "113,118,140,162,250"}
{"stopId": "40021", "stopName": "1827 SK. 1A", "lat": "36.9795488", "lng": "35.376918", "routes": "127"}
{"stopId": "40022", "stopName": "1827 SK. 1B", "lat": "36.9795405", "lng": "35.3767985", "routes": "127"}
{"stopId": "40023", "stopName": "Polis okulu", "lat": "36.9826426", "lng": "35.3772932", "routes": "127,17025"}
{"stopId": "40024", "stopName": "1827 SK. 2B", "lat": "36.9826626", "lng": "35.3770491", "routes": "127"}
{"stopId": "40025", "stopName": "1995 SK. 1A", "lat": "36.9757072", "lng": "35.4016275", "routes": "122,127"}
{"stopId": "40026", "stopName": "1995 SK. 1B", "lat": "36.974703", "lng": "35.4049917", "routes": "122,127"}
{"stopId": "40027", "stopName": "2003 SK. 1A", "lat": "37.0658637", "lng": "35.4064414", "routes": "162"}
{"stopId": "40028", "stopName": "2003 SK. 1B", "lat": "37.0659573", "lng": "35.4063932", "routes": "140,162,17035"}
{"stopId": "40029", "stopName": "2009 SK. 1A", "lat": "37.0682502", "lng": "35.407379", "routes": "140,162"}
{"stopId": "40030", "stopName": "2009 SK. 1B", "lat": "37.0683485", "lng": "35.4073376", "routes": "140,162,17035"}
{"stopId": "40031", "stopName": "2009 SK. 2A", "lat": "37.0691455", "lng": "35.4088792", "routes": "140,162"}
{"stopId": "40032", "stopName": "2009 SK. 2B", "lat": "37.0692546", "lng": "35.4088498", "routes": "140,162,17035"}
{"stopId": "40033", "stopName": "2023 SK. 1A", "lat": "37.0739601", "lng": "35.4081374", "routes": "17035"}
{"stopId": "40034", "stopName": "2023 SK. 1B", "lat": "37.0739649", "lng": "35.4079977", "routes": "118,140,158,162"}
{"stopId": "40035", "stopName": "2023 SK. 2A", "lat": "37.0766377", "lng": "35.4097488", "routes": "118,140,158,162,17035"}
{"stopId": "40036", "stopName": "2023 SK. 2B", "lat": "37.075908", "lng": "35.408824", "routes": "118,140,158,162"}
{"stopId": "40037", "stopName": "2023 SK. 3A", "lat": "37.0792022", "lng": "35.4098283", "routes": "118,140,158,162,17035"}
{"stopId": "40038", "stopName": "2023 SK. 3B", "lat": "37.0791564", "lng": "35.4097126", "routes": "118,140,158,162"}
{"stopId": "40039", "stopName": "2029 SK. 1A", "lat": "37.0640016", "lng": "35.4061443", "routes": "113,118,140,162,250"}
{"stopId": "40040", "stopName": "2029 SK. 1B", "lat": "37.0643627", "lng": "35.4059831", "routes": "113,118,140,162,17035"}
{"stopId": "40041", "stopName": "2029 SK. 2A", "lat": "37.0677206", "lng": "35.4059242", "routes": "113,118,250,17035"}
{"stopId": "40042", "stopName": "2029 SK. 3B", "lat": "37.067796", "lng": "35.4057677", "routes": "113,118,250"}
{"stopId": "40043", "stopName": "2029 SK. 3A", "lat": "37.0701741", "lng": "35.4066568", "routes": "113,118,250"}
{"stopId": "40044", "stopName": "2029 SK. 4B", "lat": "37.0702248", "lng": "35.4064843", "routes": "113,118,250"}
{"stopId": "40045", "stopName": "2038 SK. 1A", "lat": "36.9774364", "lng": "35.3917971", "routes": "127"}
{"stopId": "40046", "stopName": "2038 SK. 1B", "lat": "36.9774309", "lng": "35.3916045", "routes": "127"}
{"stopId": "40047", "stopName": "2057 SK. 1A", "lat": "37.0739001", "lng": "35.41342", "routes": "118,158,162,201,250,17035"}
{"stopId": "40048", "stopName": "2057 SK. 1B", "lat": "37.0738613", "lng": "35.4133279", "routes": "113,118,158,162,250,24042"}
{"stopId": "40049", "stopName": "2316 SK. 1A", "lat": "36.9870468", "lng": "35.375374", "routes": "166"}
{"stopId": "40050", "stopName": "2316 SK. 1B", "lat": "36.9872553", "lng": "35.3753575", "routes": "166"}
{"stopId": "40051", "stopName": "27 MAYIS CD 1A", "lat": "36.999713", "lng": "35.2975724", "routes": "162"}
{"stopId": "40052", "stopName": "27 MAYIS CD 1B", "lat": "36.9996188", "lng": "35.2975815", "routes": "162"}
{"stopId": "40053", "stopName": "27 MAYIS CD 2A", "lat": "36.9994989", "lng": "35.2954073", "routes": "162"}
{"stopId": "40054", "stopName": "27 MAYIS CD 2B", "lat": "36.9994244", "lng": "35.2954207", "routes": "162"}
{"stopId": "40055", "stopName": "27 MAYIS CD 3A", "lat": "36.9994609", "lng": "35.2934942", "routes": "162"}
{"stopId": "40056", "stopName": "27 MAYIS CD 3B", "lat": "36.9994002", "lng": "35.2934869", "routes": "162"}
{"stopId": "40057", "stopName": "2734 SK. 1A", "lat": "37.0016", "lng": "35.3756383", "routes": "127"}
{"stopId": "40058", "stopName": "2734 SK. 1B", "lat": "37.0017125", "lng": "35.3755991", "routes": "127"}
{"stopId": "40059", "stopName": "2801 SK. 1A", "lat": "37.0020321", "lng": "35.3789068", "routes": "165"}
{"stopId": "40060", "stopName": "2801 SK. 1B", "lat": "37.0020933", "lng": "35.3788151", "routes": "165"}
{"stopId": "40061", "stopName": "2801 SK. 2A", "lat": "37.0009852", "lng": "35.3754989", "routes": "165"}
{"stopId": "40062", "stopName": "2801 SK. 2B", "lat": "37.0011239", "lng": "35.3754838", "routes": "165"}
{"stopId": "40063", "stopName": "2801 SK. 3A", "lat": "37.0000585", "lng": "35.3722248", "routes": "165"}
{"stopId": "40064", "stopName": "2801 SK. 3B", "lat": "37.0001535", "lng": "35.3721876", "routes": "165"}
{"stopId": "40065", "stopName": "2812 SK. 1A", "lat": "37.0051588", "lng": "35.3823486", "routes": "165"}
{"stopId": "40066", "stopName": "2812 SK. 1B", "lat": "37.0052227", "lng": "35.3822564", "routes": "165"}
{"stopId": "40067", "stopName": "2970 SK. 1A", "lat": "37.0029619", "lng": "35.3794225", "routes": "127"}
{"stopId": "40068", "stopName": "2970 SK. 1B", "lat": "37.003052", "lng": "35.3793128", "routes": "127"}
{"stopId": "40069", "stopName": "3299 SK. 1A", "lat": "37.0349655", "lng": "35.432488", "routes": "119,202,204"}
{"stopId": "40070", "stopName": "3299 SK. 1B", "lat": "37.0350737", "lng": "35.4325054", "routes": "119,202,204,33003"}
{"stopId": "40071", "stopName": "3598 SK. 1B", "lat": "37.048532", "lng": "35.434575", "routes": "125"}
{"stopId": "40072", "stopName": "3613 SK. 1A", "lat": "37.0152423", "lng": "35.3717144", "routes": "111,112,202"}
{"stopId": "40073", "stopName": "3613 SK. 1B", "lat": "37.0152314", "lng": "35.3715007", "routes": "111,112,202"}
{"stopId": "40074", "stopName": "3783 SK. 1A", "lat": "37.0168622", "lng": "35.3701685", "routes": "111,112,202,16083"}
{"stopId": "40075", "stopName": "3783 SK. 1B", "lat": "37.0168032", "lng": "35.3700239", "routes": "111,112,202"}
{"stopId": "40076", "stopName": "3783 SK. 2A", "lat": "37.0178897", "lng": "35.3688072", "routes": "111,112,202,16083"}
{"stopId": "40077", "stopName": "3783 SK. 2B", "lat": "37.0177898", "lng": "35.3686855", "routes": "111,112,202"}
{"stopId": "40078", "stopName": "3783 SK. 3A", "lat": "37.0195126", "lng": "35.3665233", "routes": "111,112,202"}
{"stopId": "40079", "stopName": "3783 SK. 3B", "lat": "37.0194337", "lng": "35.3664098", "routes": "111,112,202"}
{"stopId": "40080", "stopName": "3923 SK. 1A", "lat": "37.0569477", "lng": "35.4653432", "routes": "119,125,202,204"}
{"stopId": "40081", "stopName": "3923 SK. 1B", "lat": "37.0571379", "lng": "35.4653293", "routes": "119,125,202,204"}
{"stopId": "40082", "stopName": "3923 SK. 2A", "lat": "37.0579141", "lng": "35.4681557", "routes": "119,125,202,204"}
{"stopId": "40083", "stopName": "3923 SK. 2B", "lat": "37.0581356", "lng": "35.4681653", "routes": "119,202,204"}
{"stopId": "40084", "stopName": "4100 SK. 1A", "lat": "37.0016159", "lng": "35.3423141", "routes": "174,197,210"}
{"stopId": "40085", "stopName": "4100 SK. 1B", "lat": "37.0017991", "lng": "35.3423385", "routes": "174,210"}
{"stopId": "40094", "stopName": "4389 SK. 1A", "lat": "37.0166573", "lng": "35.3349508", "routes": "135"}
{"stopId": "40095", "stopName": "4389 SK. 1B", "lat": "37.0165633", "lng": "35.3348244", "routes": "135"}
{"stopId": "40096", "stopName": "4470 SK. 1A", "lat": "37.0201281", "lng": "35.3386748", "routes": "135"}
{"stopId": "40097", "stopName": "4470 SK. 1B", "lat": "37.0202182", "lng": "35.338684", "routes": "135"}
{"stopId": "40098", "stopName": "4470 SK. 2A", "lat": "37.0208061", "lng": "35.3361864", "routes": "135"}
{"stopId": "40099", "stopName": "4470 SK. 2B", "lat": "37.020862", "lng": "35.3362172", "routes": "135"}
{"stopId": "40100", "stopName": "46003 SK. 1A", "lat": "36.981543", "lng": "35.2562294", "routes": "126"}
{"stopId": "40101", "stopName": "46003 SK. 1B", "lat": "36.9813101", "lng": "35.2558764", "routes": "126"}
{"stopId": "40102", "stopName": "46003 SK. 2A", "lat": "36.9836953", "lng": "35.25535", "routes": "126"}
{"stopId": "40103", "stopName": "46003 SK. 2B", "lat": "36.9836347", "lng": "35.2548652", "routes": "126"}
{"stopId": "40104", "stopName": "46003 SK. 3A", "lat": "36.985898", "lng": "35.2543973", "routes": "126"}
{"stopId": "40105", "stopName": "46003 SK. 3B", "lat": "36.9858043", "lng": "35.2539882", "routes": "126,31003"}
{"stopId": "40106", "stopName": "46003 SK. 4A", "lat": "36.9926051", "lng": "35.2525354", "routes": "110,193"}
{"stopId": "40107", "stopName": "46003 SK. 4B", "lat": "36.9903696", "lng": "35.2525669", "routes": "110,193"}
{"stopId": "40108", "stopName": "46003 SK. 5A", "lat": "36.9942716", "lng": "35.2522883", "routes": "110,193"}
{"stopId": "40109", "stopName": "46003 SK. 5B", "lat": "36.9927764", "lng": "35.252176", "routes": "110,193"}
{"stopId": "40110", "stopName": "46003 SK. 6B", "lat": "36.9942196", "lng": "35.2520069", "routes": "110,193"}
{"stopId": "40111", "stopName": "46019 SK. 1A", "lat": "36.9872737", "lng": "35.2577828", "routes": "110,121"}
{"stopId": "40112", "stopName": "46019 SK. 1B", "lat": "36.9873341", "lng": "35.2574681", "routes": "110,121"}
{"stopId": "40113", "stopName": "46019 SK. 2A", "lat": "36.9870302", "lng": "35.2548374", "routes": "110,121"}
{"stopId": "40114", "stopName": "46019 SK. 2B", "lat": "36.9872938", "lng": "35.2550618", "routes": "110,121"}
{"stopId": "40115", "stopName": "46043 SK. 1A", "lat": "36.9811969", "lng": "35.2595891", "routes": "126"}
{"stopId": "40116", "stopName": "46043 SK. 1B", "lat": "36.9814564", "lng": "35.2595031", "routes": "126"}
{"stopId": "40117", "stopName": "MESLEKİ EĞİTİM MERKEZİ", "lat": "36.9868952", "lng": "35.2528009", "routes": "121,126,193,31003"}
{"stopId": "40118", "stopName": "46087 SK. 1B", "lat": "36.9871297", "lng": "35.2527574", "routes": "121,126,193"}
{"stopId": "40119", "stopName": "46087 SK. 2A", "lat": "36.9866786", "lng": "35.2495297", "routes": "121,126,193,31003"}
{"stopId": "40120", "stopName": "46087 SK. 2B", "lat": "36.9869069", "lng": "35.249712", "routes": "121,126,193"}
{"stopId": "40121", "stopName": "46087 SK. 3A", "lat": "36.9866722", "lng": "35.2475066", "routes": "121,126,193,31003"}
{"stopId": "40122", "stopName": "46087 SK. 3B", "lat": "36.986868", "lng": "35.2474877", "routes": "121,126,193"}
{"stopId": "40123", "stopName": "46120 SK. 1A", "lat": "37.0042235", "lng": "35.2501934", "routes": "140,144,166"}
{"stopId": "40124", "stopName": "46120 SK. 1B", "lat": "37.0047401", "lng": "35.2498984", "routes": "140,144,166"}
{"stopId": "40125", "stopName": "46120 SK. 2A", "lat": "37.0026378", "lng": "35.2448539", "routes": "140,144,166"}
{"stopId": "40126", "stopName": "46120 SK. 2B", "lat": "37.0032073", "lng": "35.2446323", "routes": "140,144,166"}
{"stopId": "40127", "stopName": "46120 SK. 3A", "lat": "37.001973", "lng": "35.241483", "routes": "140,144,166"}
{"stopId": "40128", "stopName": "46120 SK. 3B", "lat": "37.0026983", "lng": "35.2421683", "routes": "140,144,166"}
{"stopId": "40129", "stopName": "46120 SK. 4A", "lat": "37.0012956", "lng": "35.2382371", "routes": "140,144,166,28007,28012"}
{"stopId": "40130", "stopName": "46120 SK. 4B", "lat": "37.0019246", "lng": "35.2386571", "routes": "140,144,166"}
{"stopId": "40131", "stopName": "46214 SK. 1A", "lat": "37.0039375", "lng": "35.2416862", "routes": "121,140,154,28007,28012"}
{"stopId": "40132", "stopName": "46214 SK. 1B", "lat": "37.0041008", "lng": "35.2416991", "routes": "121,140,154"}
{"stopId": "40133", "stopName": "46214 SK. 2A", "lat": "37.0038041", "lng": "35.2395859", "routes": "121,140,154"}
{"stopId": "40134", "stopName": "46214 SK. 2B", "lat": "37.0039814", "lng": "35.2396365", "routes": "121,140,154"}
{"stopId": "40135", "stopName": "46214 SK. 3A", "lat": "37.0036781", "lng": "35.2373404", "routes": "121,140,144,154"}
{"stopId": "40136", "stopName": "46214 SK. 3B", "lat": "37.0037867", "lng": "35.2373131", "routes": "121,140,144,154"}
{"stopId": "40137", "stopName": "46214 SK. 4A", "lat": "37.0033882", "lng": "35.2349023", "routes": "121,140,144,154"}
{"stopId": "40138", "stopName": "46214 SK. 4B", "lat": "37.0035077", "lng": "35.2348426", "routes": "121,140,144,154"}
{"stopId": "40139", "stopName": "46218 SK. 1A", "lat": "37.0052013", "lng": "35.2374005", "routes": "144"}
{"stopId": "40140", "stopName": "46218 SK. 1B", "lat": "37.005138", "lng": "35.2372516", "routes": "144"}
{"stopId": "40141", "stopName": "46252 SK. 1A", "lat": "37.0045094", "lng": "35.2443576", "routes": "121,140,154"}
{"stopId": "40142", "stopName": "46252 SK. 1B", "lat": "37.0044817", "lng": "35.2442382", "routes": "121,140,154"}
{"stopId": "40143", "stopName": "46252 SK. 2A", "lat": "37.006797", "lng": "35.244737", "routes": "121,140,154"}
{"stopId": "40144", "stopName": "46252 SK. 2B", "lat": "37.0068279", "lng": "35.2446112", "routes": "121,140,154"}
{"stopId": "40145", "stopName": "49086 SK. 1A", "lat": "37.0063708", "lng": "35.267658", "routes": "161,166"}
{"stopId": "40147", "stopName": "49100 SK. 1A", "lat": "37.006475", "lng": "35.265272", "routes": "161,166"}
{"stopId": "40148", "stopName": "49100 SK. 1B", "lat": "37.0065675", "lng": "35.2647583", "routes": "161,166"}
{"stopId": "40149", "stopName": "51010 SK. 1A", "lat": "37.0044926", "lng": "35.2941094", "routes": "161"}
{"stopId": "40150", "stopName": "51010 SK. 1B", "lat": "37.0044274", "lng": "35.2940534", "routes": "161"}
{"stopId": "40151", "stopName": "51010 SK. 2A", "lat": "37.0054992", "lng": "35.292504", "routes": "161"}
{"stopId": "40152", "stopName": "51010 SK. 2B", "lat": "37.0054776", "lng": "35.2924109", "routes": "161"}
{"stopId": "40153", "stopName": "51010 SK. 3A", "lat": "37.0065714", "lng": "35.2909164", "routes": "161"}
{"stopId": "40154", "stopName": "51010 SK. 3B", "lat": "37.0065004", "lng": "35.2908224", "routes": "161"}
{"stopId": "40156", "stopName": "51010 SK. 4B", "lat": "37.0073523", "lng": "35.2892503", "routes": "161"}
{"stopId": "40157", "stopName": "59011 SK. 1A", "lat": "36.994293", "lng": "35.3077675", "routes": "162,29003,29004"}
{"stopId": "40158", "stopName": "59011 SK. 1B", "lat": "36.9945056", "lng": "35.307778", "routes": "162"}
{"stopId": "40159", "stopName": "59011 SK. 2A", "lat": "36.9948141", "lng": "35.3015932", "routes": "162,29003,29004,29005"}
{"stopId": "40160", "stopName": "59011 SK. 2B", "lat": "36.9950276", "lng": "35.3020788", "routes": "162,29003,29004,29005"}
{"stopId": "40161", "stopName": "60012 SK. 1A", "lat": "36.9937647", "lng": "35.3107922", "routes": "161,162"}
{"stopId": "40162", "stopName": "60012 SK. 1B", "lat": "36.9939228", "lng": "35.3109067", "routes": "161,162"}
{"stopId": "40163", "stopName": "60074  SK.1A", "lat": "37.0007219", "lng": "35.3117497", "routes": "161,29006"}
{"stopId": "40164", "stopName": "60074  SK.1B", "lat": "37.000907", "lng": "35.3116683", "routes": "161,29006"}
{"stopId": "40165", "stopName": "630 SK. 1A", "lat": "37.0366928", "lng": "35.4006325", "routes": "118,201"}
{"stopId": "40166", "stopName": "630 SK. 1B", "lat": "37.0368105", "lng": "35.4005269", "routes": "118,201"}
{"stopId": "40167", "stopName": "6344 SK", "lat": "36.9802821", "lng": "35.41588", "routes": "127"}
{"stopId": "40168", "stopName": "6344 SK", "lat": "36.9803382", "lng": "35.4159507", "routes": "127"}
{"stopId": "40169", "stopName": "6344 SK 2", "lat": "36.9810431", "lng": "35.4140898", "routes": "127"}
{"stopId": "40170", "stopName": "6344 SK 2", "lat": "36.9810995", "lng": "35.4141566", "routes": "127"}
{"stopId": "40171", "stopName": "636 SK. 1A", "lat": "37.0357116", "lng": "35.399271", "routes": "118,201"}
{"stopId": "40172", "stopName": "636 SK. 1B", "lat": "37.0357366", "lng": "35.3990722", "routes": "118,201"}
{"stopId": "40173", "stopName": "637 SK. 1A", "lat": "37.0348708", "lng": "35.4015065", "routes": "118,201"}
{"stopId": "40174", "stopName": "637 SK. 1B", "lat": "37.0349473", "lng": "35.401544", "routes": "118,201"}
{"stopId": "40175", "stopName": "659 SK. 1A", "lat": "37.0372746", "lng": "35.4028109", "routes": "118,201"}
{"stopId": "40176", "stopName": "659 SK. 1A", "lat": "37.0358129", "lng": "35.4024792", "routes": "118,201"}
{"stopId": "40177", "stopName": "659 SK. 1B", "lat": "37.037319", "lng": "35.4027102", "routes": "118,201"}
{"stopId": "40178", "stopName": "659 SK. 1B", "lat": "37.0358502", "lng": "35.4023634", "routes": "118,201"}
{"stopId": "40179", "stopName": "667 SK. 1A", "lat": "37.0372644", "lng": "35.4046751", "routes": "118,201"}
{"stopId": "40180", "stopName": "667 SK. 1B", "lat": "37.0374232", "lng": "35.4045882", "routes": "118,201"}
{"stopId": "40186", "stopName": "74175 SK. 1A", "lat": "37.0176459", "lng": "35.2872114", "routes": "156,158"}
{"stopId": "40187", "stopName": "74175 SK. 1B", "lat": "37.017939", "lng": "35.28793", "routes": "156,158,29003"}
{"stopId": "40188", "stopName": "75 YIL CUMHURİYET BULVARI 1A", "lat": "37.0119466", "lng": "35.3756079", "routes": "112,202,16083"}
{"stopId": "40189", "stopName": "75.YIL CUMHURİYET BULVARI 1B", "lat": "37.0119284", "lng": "35.3753394", "routes": "112,202,17026"}
{"stopId": "40190", "stopName": "75.YIL CUMHURİYET BULVARI 2A", "lat": "37.0133249", "lng": "35.3736366", "routes": "112,202,16083,17026"}
{"stopId": "40191", "stopName": "75.YIL CUMHURİYET BULVARI 2B", "lat": "37.0131983", "lng": "35.3735926", "routes": "112,202"}
{"stopId": "40192", "stopName": "75001 SK. 1A", "lat": "37.0132152", "lng": "35.2796513", "routes": "156,160,200"}
{"stopId": "40193", "stopName": "75001 SK. 1B", "lat": "37.0131073", "lng": "35.2796137", "routes": "156,160,200"}
{"stopId": "40194", "stopName": "75001 SK. 2A", "lat": "37.0146043", "lng": "35.2767686", "routes": "156,160,200"}
{"stopId": "40195", "stopName": "75001 SK. 2B", "lat": "37.0144532", "lng": "35.2768577", "routes": "156,160,200"}
{"stopId": "40196", "stopName": "75268 SK. 1A", "lat": "37.0165135", "lng": "35.2732335", "routes": "156,160,200"}
{"stopId": "40197", "stopName": "75268 SK. 1B", "lat": "37.0164442", "lng": "35.2730114", "routes": "156,160,200"}
{"stopId": "40198", "stopName": "75268 SK. 2A", "lat": "37.0189102", "lng": "35.2729852", "routes": "156,160,200"}
{"stopId": "40199", "stopName": "75268 SK. 2B", "lat": "37.0188761", "lng": "35.2727945", "routes": "156,160,200"}
{"stopId": "40200", "stopName": "75268 SK. 3A", "lat": "37.0198355", "lng": "35.272718", "routes": "156,160,200"}
{"stopId": "40201", "stopName": "75268 SK. 3B", "lat": "37.0198395", "lng": "35.2725186", "routes": "156,160,200"}
{"stopId": "40202", "stopName": "76034 SK. 1A", "lat": "37.0298345", "lng": "35.264963", "routes": "160,200"}
{"stopId": "40203", "stopName": "76034 SK. 1B", "lat": "37.029954", "lng": "35.264723", "routes": "160,200"}
{"stopId": "40204", "stopName": "77136 SK. 1A", "lat": "37.0379683", "lng": "35.2817321", "routes": "115"}
{"stopId": "40205", "stopName": "77136 SK. 1B", "lat": "37.0381478", "lng": "35.2817085", "routes": "115"}
{"stopId": "40206", "stopName": "77136 SK. 2A", "lat": "37.039164", "lng": "35.2808495", "routes": "115"}
{"stopId": "40207", "stopName": "77136 SK. 2B", "lat": "37.0391923", "lng": "35.2810203", "routes": "115"}
{"stopId": "40208", "stopName": "77140 SK. 1A", "lat": "37.0369114", "lng": "35.2827506", "routes": "115"}
{"stopId": "40209", "stopName": "77140 SK. 1B", "lat": "37.0369393", "lng": "35.2826621", "routes": "115"}
{"stopId": "40210", "stopName": "77151 SK A", "lat": "37.0431633", "lng": "35.2813287", "routes": "115"}
{"stopId": "40211", "stopName": "77151 SK B", "lat": "37.0431813", "lng": "35.2814703", "routes": "115"}
{"stopId": "40212", "stopName": "77163 SK. 1A", "lat": "37.0407935", "lng": "35.2814614", "routes": "115"}
{"stopId": "40213", "stopName": "77163 SK. 1B", "lat": "37.0407407", "lng": "35.2813517", "routes": "115"}
{"stopId": "40214", "stopName": "77205 SK", "lat": "37.0455968", "lng": "35.2812476", "routes": "115"}
{"stopId": "40220", "stopName": "80.YIL BLV. 1A", "lat": "37.0331018", "lng": "35.2878091", "routes": "115,151"}
{"stopId": "40221", "stopName": "80.YIL BLV. 2A", "lat": "37.03198", "lng": "35.283483", "routes": "115"}
{"stopId": "40222", "stopName": "80.YIL BLV. 3B", "lat": "37.0317208", "lng": "35.2825738", "routes": "115"}
{"stopId": "40223", "stopName": "80.YIL BLV. 3A", "lat": "37.0337199", "lng": "35.28123", "routes": "115"}
{"stopId": "40224", "stopName": "80.YIL BLV. 4B", "lat": "37.0337151", "lng": "35.2809543", "routes": "115"}
{"stopId": "40225", "stopName": "83061 SK. 1B", "lat": "37.0612513", "lng": "35.2725306", "routes": "159,203"}
{"stopId": "40226", "stopName": "84051 SK. 1A", "lat": "37.0355909", "lng": "35.2711784", "routes": "153,157,172"}
{"stopId": "40227", "stopName": "84051 SK. 1B", "lat": "37.0356253", "lng": "35.2709923", "routes": "153,157,172"}
{"stopId": "40228", "stopName": "84051 SK. 2A", "lat": "37.0370967", "lng": "35.2711284", "routes": "153,157,172"}
{"stopId": "40229", "stopName": "84051 SK. 2B", "lat": "37.036997", "lng": "35.2709851", "routes": "153,157,172"}
{"stopId": "40230", "stopName": "84051 SK. 3A", "lat": "37.0386314", "lng": "35.268936", "routes": "153,157,172"}
{"stopId": "40231", "stopName": "84051 SK. 3B", "lat": "37.0384772", "lng": "35.2689713", "routes": "153,157,172"}
{"stopId": "40232", "stopName": "84081 SK. 1A", "lat": "37.0385923", "lng": "35.2675676", "routes": "157,172"}
{"stopId": "40233", "stopName": "84081 SK. 1B", "lat": "37.0388005", "lng": "35.2675251", "routes": "157,172"}
{"stopId": "40234", "stopName": "84082 SK. 1A", "lat": "37.0402548", "lng": "35.2685979", "routes": "153"}
{"stopId": "40235", "stopName": "84082 SK. 1B", "lat": "37.0402515", "lng": "35.26845", "routes": "153"}
{"stopId": "40236", "stopName": "84082 SK. 2A", "lat": "37.0415097", "lng": "35.2668697", "routes": "153"}
{"stopId": "40237", "stopName": "84082 SK. 2B", "lat": "37.0414011", "lng": "35.2668225", "routes": "153"}
{"stopId": "40238", "stopName": "84100 SK. 1A", "lat": "37.0391506", "lng": "35.2663031", "routes": "157,172"}
{"stopId": "40239", "stopName": "84100 SK. 1B", "lat": "37.0391176", "lng": "35.2661767", "routes": "157,172"}
{"stopId": "40240", "stopName": "84100 SK. 2A", "lat": "37.0406572", "lng": "35.2660619", "routes": "157,172"}
{"stopId": "40241", "stopName": "84100 SK. 2B", "lat": "37.0405692", "lng": "35.2659332", "routes": "157,172"}
{"stopId": "40242", "stopName": "84100 SK. 3A", "lat": "37.0421767", "lng": "35.2653866", "routes": "153,157,172"}
{"stopId": "40243", "stopName": "84100 SK. 3B", "lat": "37.0421925", "lng": "35.2652483", "routes": "153,157,172"}
{"stopId": "40244", "stopName": "84100 SK. 4A", "lat": "37.0431844", "lng": "35.2653866", "routes": "153,157,172"}
{"stopId": "40245", "stopName": "84100 SK. 4B", "lat": "37.0432165", "lng": "35.265227", "routes": "153,157,172"}
{"stopId": "40246", "stopName": "84165 SK. 1A", "lat": "37.0436842", "lng": "35.2664614", "routes": "153,157,172"}
{"stopId": "40247", "stopName": "84165 SK. 1B", "lat": "37.0436363", "lng": "35.2663513", "routes": "153,157,172"}
{"stopId": "40248", "stopName": "84165 SK. 2A", "lat": "37.0449577", "lng": "35.2664421", "routes": "153,157,172"}
{"stopId": "40249", "stopName": "84165 SK. 2B", "lat": "37.0449477", "lng": "35.2662962", "routes": "153,157,172"}
{"stopId": "40250", "stopName": "84176 SK. 1A", "lat": "37.046971", "lng": "35.26419", "routes": "153,157"}
{"stopId": "40251", "stopName": "84176 SK. 1B", "lat": "37.0466067", "lng": "35.2641321", "routes": "153,157"}
{"stopId": "40252", "stopName": "84176 SK. 2A", "lat": "37.0482252", "lng": "35.2648289", "routes": "153,157"}
{"stopId": "40253", "stopName": "84176 SK. 2B", "lat": "37.0481368", "lng": "35.2647132", "routes": "153,157"}
{"stopId": "40255", "stopName": "84182 SK. 1B", "lat": "37.0499025", "lng": "35.2639015", "routes": "153,157"}
{"stopId": "40256", "stopName": "84186 SK. 1A", "lat": "37.0432761", "lng": "35.2607691", "routes": "142,153,157,301"}
{"stopId": "40257", "stopName": "84186 SK. 1B", "lat": "37.0434335", "lng": "35.2605051", "routes": "142,153,157,301"}
{"stopId": "40258", "stopName": "84186 SK. 2A", "lat": "37.0455007", "lng": "35.2616061", "routes": "142,153,301"}
{"stopId": "40259", "stopName": "84186 SK. 2B", "lat": "37.0455603", "lng": "35.2614043", "routes": "142,153,301"}
{"stopId": "40260", "stopName": "84220 SK. 1A", "lat": "37.0451419", "lng": "35.260025", "routes": "157"}
{"stopId": "40261", "stopName": "84220 SK. 1B", "lat": "37.0451768", "lng": "35.25985", "routes": "157"}
{"stopId": "40262", "stopName": "84220 SK. 2A", "lat": "37.0473863", "lng": "35.2588259", "routes": "157"}
{"stopId": "40263", "stopName": "84220 SK. 2B", "lat": "37.0473481", "lng": "35.2587435", "routes": "157"}
{"stopId": "40265", "stopName": "84220 SK. 3B", "lat": "37.049074", "lng": "35.2603956", "routes": "157"}
{"stopId": "40266", "stopName": "85021 SK. 1A", "lat": "37.043934", "lng": "35.2510769", "routes": "142,153,301"}
{"stopId": "40267", "stopName": "85021 SK. 1B", "lat": "37.0437712", "lng": "35.2509833", "routes": "142,153,301"}
{"stopId": "40268", "stopName": "85021 SK. 2A", "lat": "37.0471231", "lng": "35.2488714", "routes": "142,153,301"}
{"stopId": "40269", "stopName": "85021 SK. 2B", "lat": "37.0471797", "lng": "35.2487009", "routes": "142,153,301"}
{"stopId": "40270", "stopName": "85207 SK. 1A", "lat": "37.0483648", "lng": "35.246845", "routes": "142,153,301"}
{"stopId": "40271", "stopName": "85207 SK. 1B", "lat": "37.0485822", "lng": "35.2468247", "routes": "142,153,301"}
{"stopId": "40272", "stopName": "85251 SK. 1A", "lat": "37.0509776", "lng": "35.2456622", "routes": "142,153,301"}
{"stopId": "40273", "stopName": "85251 SK. 1B", "lat": "37.0509608", "lng": "35.2454743", "routes": "142,153,301"}
{"stopId": "40274", "stopName": "85265 SK. 1A", "lat": "37.0519926", "lng": "35.24369", "routes": "142,153,301,28004"}
{"stopId": "40275", "stopName": "85265 SK. 1B", "lat": "37.0522931", "lng": "35.2447381", "routes": "142,153,301"}
{"stopId": "40276", "stopName": "85267 SK. 1A", "lat": "37.0489282", "lng": "35.241328", "routes": "142,153,301"}
{"stopId": "40277", "stopName": "85267 SK. 1B", "lat": "37.0489497", "lng": "35.2411397", "routes": "142,153,301"}
{"stopId": "40278", "stopName": "85267 SK. 2A", "lat": "37.0505942", "lng": "35.2415932", "routes": "142,153,301"}
{"stopId": "40279", "stopName": "85267 SK. 2B", "lat": "37.0506445", "lng": "35.2414836", "routes": "142,153,301,28004"}
{"stopId": "40280", "stopName": "85329 SK. 1A", "lat": "37.0466499", "lng": "35.2412393", "routes": "142,153,301,28004"}
{"stopId": "40281", "stopName": "85329 SK. 1B", "lat": "37.0467886", "lng": "35.2412971", "routes": "142,153,301"}
{"stopId": "40282", "stopName": "85331 SK. 1A", "lat": "37.0399844", "lng": "35.243897", "routes": "142,153,301"}
{"stopId": "40283", "stopName": "85331 SK. 1B", "lat": "37.0398922", "lng": "35.2437467", "routes": "142,153,301"}
{"stopId": "40284", "stopName": "85331 SK. 2A", "lat": "37.0412987", "lng": "35.243195", "routes": "142,153,301"}
{"stopId": "40285", "stopName": "85331 SK. 2B", "lat": "37.041215", "lng": "35.2429883", "routes": "142,153,301,28004"}
{"stopId": "40286", "stopName": "85331 SK. 3A", "lat": "37.0433335", "lng": "35.2428801", "routes": "142,153,301"}
{"stopId": "40287", "stopName": "85331 SK. 3B", "lat": "37.0433485", "lng": "35.2427601", "routes": "142,153,301,28004"}
{"stopId": "40288", "stopName": "86112 SK. 1A", "lat": "37.0282233", "lng": "35.2371028", "routes": "157"}
{"stopId": "40289", "stopName": "86116 SK. 1A", "lat": "37.0291743", "lng": "35.235109", "routes": "157"}
{"stopId": "40290", "stopName": "87001 SK. 1A", "lat": "37.0104464", "lng": "35.2448433", "routes": "121,140,144,154"}
{"stopId": "40291", "stopName": "87001 SK. 1B", "lat": "37.0106539", "lng": "35.244626", "routes": "121,140,144,154"}
{"stopId": "40292", "stopName": "87001 SK. 2A", "lat": "37.0122505", "lng": "35.2452541", "routes": "121,140,144,154"}
{"stopId": "40293", "stopName": "87001 SK. 2B", "lat": "37.0120681", "lng": "35.245039", "routes": "121,140,144,154"}
{"stopId": "40294", "stopName": "87005 SK. 1A", "lat": "37.0077665", "lng": "35.2384417", "routes": "121,144"}
{"stopId": "40295", "stopName": "87005 SK. 1A", "lat": "37.0095324", "lng": "35.2436581", "routes": "121,144"}
{"stopId": "40296", "stopName": "87005 SK. 1B", "lat": "37.0079049", "lng": "35.2383646", "routes": "121,144"}
{"stopId": "40297", "stopName": "87005 SK. 1B", "lat": "37.0096863", "lng": "35.2437335", "routes": "121,144"}
{"stopId": "40298", "stopName": "A .TÜRKEŞ BLV. 7A", "lat": "37.0465795", "lng": "35.2822165", "routes": "175,176,182,188,190,192,196,205,409"}
{"stopId": "40299", "stopName": "A.BOZDOĞANOĞLU 1A", "lat": "37.0133293", "lng": "35.2876889", "routes": "156,29005,29006"}
{"stopId": "40300", "stopName": "A.BOZDOĞANOĞLU 1B", "lat": "37.0119726", "lng": "35.2881053", "routes": "156,29005,29006"}
{"stopId": "40301", "stopName": "A.BOZDOĞANOĞLU 2A", "lat": "37.016133", "lng": "35.286282", "routes": "29005,29006"}
{"stopId": "40302", "stopName": "A.BOZDOĞANOĞLU 2B", "lat": "37.0155007", "lng": "35.2864068", "routes": "156,29005,29006"}
{"stopId": "40303", "stopName": "A.BOZDOĞANOĞLU 3A", "lat": "37.0193282", "lng": "35.28357", "routes": "158,29005,29006"}
{"stopId": "40304", "stopName": "A.BOZDOĞANOĞLU 3B", "lat": "37.0191487", "lng": "35.2833733", "routes": "158,29005,29006"}
{"stopId": "40305", "stopName": "A.BOZDOĞANOĞLU 4A", "lat": "37.0221112", "lng": "35.2808142", "routes": "158,29005,29006"}
{"stopId": "40306", "stopName": "A.BOZDOĞANOĞLU 4B", "lat": "37.0217166", "lng": "35.2808111", "routes": "158,29005,29006"}
{"stopId": "40307", "stopName": "A.BOZDOĞANOĞLU 5A", "lat": "37.0235166", "lng": "35.2795504", "routes": "144,155,157,29003,29005,29006"}
{"stopId": "40308", "stopName": "A.BOZDOĞANOĞLU 5B", "lat": "37.024248", "lng": "35.27826", "routes": "144,155,157,29005,29006"}
{"stopId": "40309", "stopName": "A.BOZDOĞANOĞLU 6A", "lat": "37.026071", "lng": "35.2770072", "routes": "144,155,157,29003,29005,29006"}
{"stopId": "40310", "stopName": "A.BOZDOĞANOĞLU 6B", "lat": "37.0261172", "lng": "35.2764105", "routes": "144,155,157,29005,29006"}
{"stopId": "40311", "stopName": "A.İZZET BEGOVİÇ 1B", "lat": "37.0216475", "lng": "35.2769149", "routes": "144,158"}
{"stopId": "40312", "stopName": "A.İZZET BEGOVİÇ 2A", "lat": "37.0212685", "lng": "35.2738257", "routes": "144,158"}
{"stopId": "40313", "stopName": "A.İZZET BEGOVİÇ 2B", "lat": "37.0209499", "lng": "35.2739097", "routes": "144,158"}
{"stopId": "40314", "stopName": "A.İZZET BEGOVİÇ 3A", "lat": "37.0206805", "lng": "35.271241", "routes": "144,156,158,160,200"}
{"stopId": "40315", "stopName": "A.İZZET BEGOVİÇ 3B", "lat": "37.020387", "lng": "35.2714933", "routes": "144,156,158,160,200"}
{"stopId": "40316", "stopName": "A.İZZET BEGOVİÇ 4A", "lat": "37.0208002", "lng": "35.2686663", "routes": "144,156,158,160,200"}
{"stopId": "40317", "stopName": "A.İZZET BEGOVİÇ 4B", "lat": "37.0203725", "lng": "35.269564", "routes": "144,156,158,160,200"}
{"stopId": "40318", "stopName": "A.İZZET BEGOVİÇ 5A", "lat": "37.0211785", "lng": "35.2653522", "routes": "144,156,158,160,200"}
{"stopId": "40319", "stopName": "A.İZZET BEGOVİÇ 5B", "lat": "37.0208279", "lng": "35.2655782", "routes": "144,156,158,160,200"}
{"stopId": "40320", "stopName": "A.İZZET BEGOVİÇ 6A", "lat": "37.021387", "lng": "35.262776", "routes": "144,156,158"}
{"stopId": "40321", "stopName": "A.İZZET BEGOVİÇ 6B", "lat": "37.021006", "lng": "35.262883", "routes": "144,156,158"}
{"stopId": "40322", "stopName": "A.İZZET BEGOVİÇ 7A", "lat": "37.0222613", "lng": "35.2589535", "routes": "156,158"}
{"stopId": "40323", "stopName": "A.İZZET BEGOVİÇ 7B", "lat": "37.0218989", "lng": "35.2591416", "routes": "144,156,158"}
{"stopId": "40324", "stopName": "A.İZZET BEGOVİÇ 8A", "lat": "37.0232496", "lng": "35.2553706", "routes": "156,158"}
{"stopId": "40325", "stopName": "A.İZZET BEGOVİÇ 8B", "lat": "37.022815", "lng": "35.2556918", "routes": "156,158"}
{"stopId": "40326", "stopName": "A.İZZET BEGOVİÇ1A", "lat": "37.021838", "lng": "35.2765092", "routes": "144,158"}
{"stopId": "40327", "stopName": "A.TÜRKEŞ BLV. 10B", "lat": "37.0442964", "lng": "35.2828848", "routes": "175,176,182,188,190,192,196,205,409"}
{"stopId": "40328", "stopName": "A.TÜRKEŞ BLV. 11B", "lat": "37.0474723", "lng": "35.2812002", "routes": "115,175,176,182,188,190,192,196,205,409"}
{"stopId": "40330", "stopName": "A.TÜRKEŞ BLV. 1B", "lat": "37.005024", "lng": "35.3100416", "routes": "133,157,158,176,188,205,405,409,601"}
{"stopId": "40332", "stopName": "A.TÜRKEŞ BLV. 2B", "lat": "37.0073083", "lng": "35.3077227", "routes": "133,157,158,176,188,205,405,409,601"}
{"stopId": "40333", "stopName": "A.TÜRKEŞ BLV. 3A", "lat": "37.0126168", "lng": "35.3045471", "routes": "155,157,158,175,176,182,188,190,192,196,205,409,414"}
{"stopId": "40334", "stopName": "A.TÜRKEŞ BLV. 3B", "lat": "37.0099317", "lng": "35.3051364", "routes": "133,157,158,176,188,205,405,409,601"}
{"stopId": "40336", "stopName": "A.TÜRKEŞ BLV. 4B", "lat": "37.0125084", "lng": "35.3039526", "routes": "155,157,158,175,176,182,188,190,192,196,205,409"}
{"stopId": "40337", "stopName": "A.TÜRKEŞ BLV. 5A", "lat": "37.0362842", "lng": "35.2876465", "routes": "175,176,182,188,190,192,196,205,409"}
{"stopId": "40338", "stopName": "A.TÜRKEŞ BLV. 5B", "lat": "37.0215445", "lng": "35.3020399", "routes": "409"}
{"stopId": "40339", "stopName": "A.TÜRKEŞ BLV. 6A", "lat": "37.0414639", "lng": "35.2844311", "routes": "175,176,182,188,190,192,196,205,409"}
{"stopId": "40340", "stopName": "A.TÜRKEŞ BLV. 6B", "lat": "37.0265432", "lng": "35.2967591", "routes": "409"}
{"stopId": "40341", "stopName": "A.TÜRKEŞ BLV. 7B", "lat": "37.0366485", "lng": "35.2868687", "routes": "151,175,176,182,188,190,192,196,205,409"}
{"stopId": "40342", "stopName": "A.TÜRKEŞ BLV. 8B", "lat": "37.0388443", "lng": "35.2855023", "routes": "175,176,182,188,190,192,196,205,409"}
{"stopId": "40343", "stopName": "A.TÜRKEŞ BLV. 9B", "lat": "37.0413272", "lng": "35.2839352", "routes": "175,176,182,188,190,192,196,205,409"}
{"stopId": "40344", "stopName": "ABACILAR MAH. 1A", "lat": "37.0964837", "lng": "35.1575488", "routes": "176"}
{"stopId": "40346", "stopName": "ABDİLUŞAĞI MAH. 1A", "lat": "37.3123147", "lng": "35.6018045", "routes": "408"}
{"stopId": "40347", "stopName": "ABDİLUŞAĞI MAH. 1B", "lat": "37.312271", "lng": "35.6017136", "routes": "408"}
{"stopId": "40348", "stopName": "ABDİLUŞAĞI MAH. 2A", "lat": "37.313302", "lng": "35.5995542", "routes": "408"}
{"stopId": "40349", "stopName": "ABDİLUŞAĞI MAH. 3A", "lat": "37.3133782", "lng": "35.5993051", "routes": "408"}
{"stopId": "40350", "stopName": "ABDİOĞLU 10A", "lat": "36.9437362", "lng": "35.6006445", "routes": "181"}
{"stopId": "40351", "stopName": "ABDİOĞLU 10B", "lat": "36.9437308", "lng": "35.6004746", "routes": "181"}
{"stopId": "40352", "stopName": "ABDİOĞLU 1A", "lat": "36.9044384", "lng": "35.5684705", "routes": "181"}
{"stopId": "40353", "stopName": "ABDİOĞLU 1B", "lat": "36.9044978", "lng": "35.568381", "routes": "181"}
{"stopId": "40356", "stopName": "ABDİOĞLU 3A", "lat": "36.9084619", "lng": "35.5650349", "routes": "181"}
{"stopId": "40357", "stopName": "ABDİOĞLU 3B", "lat": "36.9084025", "lng": "35.5649606", "routes": "181"}
{"stopId": "40358", "stopName": "ABDİOĞLU 4A", "lat": "36.9095707", "lng": "35.565889", "routes": "181"}
{"stopId": "40359", "stopName": "ABDİOĞLU 4B", "lat": "36.9097052", "lng": "35.565976", "routes": "181"}
{"stopId": "40360", "stopName": "ABDİOĞLU 5A", "lat": "36.9087572", "lng": "35.5680863", "routes": "181"}
{"stopId": "40361", "stopName": "ABDİOĞLU 5B", "lat": "36.9088692", "lng": "35.5679319", "routes": "181"}
{"stopId": "40362", "stopName": "ABDİOĞLU 6A", "lat": "36.9105398", "lng": "35.5686373", "routes": "181"}
{"stopId": "40363", "stopName": "ABDİOĞLU 6B", "lat": "36.9105026", "lng": "35.5683582", "routes": "181"}
{"stopId": "40364", "stopName": "ABDİOĞLU 7A", "lat": "36.9119077", "lng": "35.5697775", "routes": "181"}
{"stopId": "40365", "stopName": "ABDİOĞLU 7B", "lat": "36.9120804", "lng": "35.5696576", "routes": "181"}
{"stopId": "40366", "stopName": "ABDİOĞLU 8A", "lat": "36.9136312", "lng": "35.5746504", "routes": "181"}
{"stopId": "40367", "stopName": "ABDİOĞLU 8B", "lat": "36.9138357", "lng": "35.5746302", "routes": "181"}
{"stopId": "40368", "stopName": "ABDİOĞLU 9A", "lat": "36.914628", "lng": "35.5783813", "routes": "181"}
{"stopId": "40369", "stopName": "ABDİOĞLU 9B", "lat": "36.9147617", "lng": "35.5784083", "routes": "181"}
{"stopId": "40370", "stopName": "ABİDİN DİNO BLV 1B", "lat": "37.0226145", "lng": "35.2625343", "routes": "160,200"}
{"stopId": "40371", "stopName": "ABİDİN DİNO BLV 2A", "lat": "37.0259618", "lng": "35.2604564", "routes": "160,200"}
{"stopId": "40372", "stopName": "ABİDİN DİNO BLV. 1A", "lat": "37.022627", "lng": "35.262855", "routes": "160,200"}
{"stopId": "40373", "stopName": "ABİDİN DİNO BLV. 2B", "lat": "37.0263214", "lng": "35.2599443", "routes": "160,200"}
{"stopId": "40375", "stopName": "ABİDİN DİNO BLV. 3B", "lat": "37.027632", "lng": "35.2590516", "routes": "160,200"}
{"stopId": "40376", "stopName": "ABİDİNPAŞA CD. 1A", "lat": "36.9860952", "lng": "35.3319168", "routes": "160,161,162,164,200,17033"}
{"stopId": "40377", "stopName": "ABİDİNPAŞA CD. 2A", "lat": "36.9861256", "lng": "35.3313327", "routes": "111,17026,17033"}
{"stopId": "40378", "stopName": "ABİDİNPAŞA CD. 3A", "lat": "36.9862397", "lng": "35.3290313", "routes": "111,160,161,162,164,200,17026,17033"}
{"stopId": "40379", "stopName": "ABİDİNPAŞA CD. 4A", "lat": "36.9863655", "lng": "35.327842", "routes": "111,17026,17033,29003,29004,29005"}
{"stopId": "40380", "stopName": "ADALI MAH. 1A", "lat": "36.6308889", "lng": "35.542405", "routes": "404"}
{"stopId": "40381", "stopName": "ADALI MAH. 2A", "lat": "36.6323636", "lng": "35.5400649", "routes": "404"}
{"stopId": "40382", "stopName": "ADALI MAH. 3A", "lat": "36.6332434", "lng": "35.5385974", "routes": "404"}
{"stopId": "40383", "stopName": "ADANA CD. 1A", "lat": "37.0197347", "lng": "35.8024817", "routes": "407"}
